id_alojamiento,name,category,rating,city,latitude,longitude,characteristics,check_in,check_out,price_discounted,price_original,price_qualifier,cant_resultados,fecha_scrapping,fecha_cambio_bna,cambio_bna
42980235,Depto. Centro de Neuquén. Wifi. Late check out.,entire_home,"4,71 (165)",Neuquén,-38.95219,-68.05738,"['1 cama', '1 dormitorio', '1 baño', '1 cama doble', 'Wifi', 'Calificado con 4,6 de 5 en limpieza']",2023-07-01,2023-07-06,,$23 USD,noche,298,2023-06-24,2023-05-01,239.9193548387097
910778141360333867,Cómodo Monoambiente en Neuquen-zona Alto Comahue,entire_home,Nuevo,Neuquén,-38.9422833,-68.064472,"['1 cama', '1 dormitorio', '1 baño', 'Wifi']",2023-08-01,2023-08-08,$14 USD,$18 USD,noche,298,2023-06-24,2023-05-01,239.9193548387097
50265327,Moderno monoambiente Neuquino - El Bunker 128,entire_home,"4,62 (47)",Neuquén,-38.957577,-68.050903,"['1 cama', 'Monoambiente', '1 baño', '1 cama doble', 'Estacionamiento gratis', 'Wifi', 'Calificado con 4,7 de 5 en limpieza']",2023-07-01,2023-07-06,$20 USD,$22 USD,noche,298,2023-06-24,2023-05-01,239.9193548387097
716439197957114546,Hermoso departamento de un dormitorio en Neuquén,entire_home,"4,97 (32)",Neuquén,-38.9476621,-68.0607723,"['2 camas', '1 dormitorio', '1 baño', '1 cama king', '1 sofá cama', 'Wifi', 'Calificado con 4,9 de 5 en limpieza']",2023-07-01,2023-07-06,,$49 USD,noche,298,2023-06-24,2023-05-01,239.9193548387097
12904217,"Depto 1 dorm céntrico, excelente!",entire_home,"4,83 (122)",Neuquen,-38.95335,-68.05235,"['1 cama', '1 dormitorio', '1 baño', '1 cama doble', 'Estacionamiento gratis', 'Wifi', 'Calificado con 4,7 de 5 en limpieza']",2023-07-02,2023-07-07,,$47 USD,noche,298,2023-06-24,2023-05-01,239.9193548387097
42407010,Luminoso Centro + Cochera (50mts RN22),entire_home,"4,56 (94)",BVH,-38.95924,-68.05126,"['2 camas', '1 dormitorio', '1 baño', '1 cama doble', '1 cama de una plaza', 'Estacionamiento gratis', 'Wifi', 'Calificado con 4,8 de 5 en limpieza']",2023-07-01,2023-07-07,,$23 USD,noche,298,2023-06-24,2023-05-01,239.9193548387097
42169384,Excelente Departamento Centro de NQN !!!,entire_home,"4,91 (33)",Neuquén,-38.95383,-68.05345,"['2 camas', '1 dormitorio', '1 baño', '1 cama de una plaza', 'Wifi', 'Calificado con 4,9 de 5 en limpieza']",2023-07-01,2023-07-08,,$29 USD,noche,298,2023-06-24,2023-05-01,239.9193548387097
553742601880782560,Depto con hermosa deco en zona centro de Neuquen,entire_home,"4,95 (19)",Neuquén,-38.94962,-68.05379,"['2 camas', '1 dormitorio', '1 baño', '1 cama doble', '1 sofá cama', 'Wifi', 'Calificado con 5 de 5 en limpieza']",2023-08-01,2023-08-06,,$28 USD,noche,298,2023-06-24,2023-05-01,239.9193548387097
875307821347794859,Mono Ambiente Céntrico,entire_home,"4,25 (4)",Neuquén,-38.95409797346549,-68.05433079600334,"['1 cama', 'Monoambiente', '1 baño', '1 cama doble', 'Estacionamiento gratis', 'Wifi', 'Calificado con 4,5 de 5 en limpieza']",2023-07-01,2023-07-07,,$27 USD,noche,298,2023-06-24,2023-05-01,239.9193548387097
871162978337725402,Relajante habitación Dpto.  pleno centro Neuquén,private_room,Nuevo,Neuquén,-38.95141,-68.06055,"['1 cama', '2 dormitorios', '1,5 baños compartidos', '1 cama doble', 'Wifi']",2023-07-01,2023-07-07,,$19 USD,noche,298,2023-06-24,2023-05-01,239.9193548387097
54231128,Departamento amplio luminoso y hermoso en Neuquén,entire_home,"4,86 (56)",Neuquén,-38.95493,-68.063,"['3 camas', '2 dormitorios', '1 ,5 baños', '1 cama queen', '2 camas de una plaza', 'Estacionamiento gratis', 'Wifi', 'Calificado con 4,8 de 5 en limpieza']",2023-07-01,2023-07-06,,$45 USD,noche,298,2023-06-24,2023-05-01,239.9193548387097
831218738602950393,Mono Ambiente céntrico nuevo,entire_home,"4,77 (13)",Neuquén,-38.95084,-68.07032,"['2 camas', 'Monoambiente', '1 baño', 'Wifi', 'Calificado con 5 de 5 en limpieza']",2023-07-09,2023-07-14,,$35 USD,noche,298,2023-06-24,2023-05-01,239.9193548387097
32307793,AMPLIO E ILUMINADO DEPTO EN EL CENTRO DE NQN CAP,entire_home,"5,0 (63)",Neuquén,-38.95422,-68.05344,"['4 camas', '2 dormitorios', '2 baños', '2 camas dobles', '2 camas de una plaza', 'Estacionamiento gratis', 'Wifi', 'Calificado con 4,9 de 5 en limpieza']",2023-07-15,2023-07-22,,$63 USD,noche,298,2023-06-24,2023-05-01,239.9193548387097
544758324919488155,Hermoso departamento recientemente terminado!,entire_home,"4,92 (12)",Neuquén,-38.95166,-68.06406,"['1 cama', '1 dormitorio', '1 ,5 baños', '1 cama doble', 'Wifi', 'Calificado con 5 de 5 en limpieza']",2023-07-11,2023-07-17,,$44 USD,noche,298,2023-06-24,2023-05-01,239.9193548387097
823188407059186857,Excelente dpto moderno con cochera. zona centro,entire_home,"5,0 (18)",Neuquén,-38.94983002151478,-68.05475905258083,"['2 camas', '1 dormitorio', '1 ,5 baños', '1 cama queen', '1 sofá cama', 'Estacionamiento gratis', 'Wifi', 'Calificado con 5 de 5 en limpieza']",2023-08-09,2023-08-14,,$42 USD,noche,298,2023-06-24,2023-05-01,239.9193548387097
49819914,Las Violetas 2 - Casa con vistas,entire_home,"4,85 (26)",Neuquén,-38.94311,-68.05264,"['2 camas', '1 dormitorio', '1 baño', 'Wifi', 'Calificado con 4,7 de 5 en limpieza']",2023-07-02,2023-07-08,,$45 USD,noche,298,2023-06-24,2023-05-01,239.9193548387097
14788688,Las Violetas 1: alojamiento con vistas,entire_home,"4,76 (26)",Neuquén,-38.94364,-68.0514,"['2 camas', '1 dormitorio', '1 baño', '1 cama doble', '1 sofá cama', 'Estacionamiento gratis', 'Wifi', 'Calificado con 4,7 de 5 en limpieza']",2023-07-01,2023-07-06,,$41 USD,noche,298,2023-06-24,2023-05-01,239.9193548387097
861497237468999644,Mono a estrenar en pleno centro!,entire_home,"5,0 (4)",Neuquén,-38.947497860284,-68.06138031184673,"['1 cama', '1 dormitorio', '1 baño', '1 cama king', 'Estacionamiento gratis', 'Wifi', 'Calificado con 5 de 5 en limpieza']",2023-07-01,2023-07-06,,$40 USD,noche,298,2023-06-24,2023-05-01,239.9193548387097
804980815139645050,Bim 8,entire_home,"4,5 (8)",Neuquén,-38.94956,-68.06069,"['2 camas', '1 dormitorio', '1 baño', 'Estacionamiento gratis', 'Wifi', 'Calificado con 4,9 de 5 en limpieza']",2023-07-10,2023-07-15,,$32 USD,noche,298,2023-06-24,2023-05-01,239.9193548387097
879948368648157764,"Casa moderna, céntrica, grande y con cochera.",entire_home,"5,0 (11)",Cipolletti,-38.93828,-67.98479,"['3 camas', '2 dormitorios', '1 baño', '1 cama queen', '2 camas de una plaza', 'Estacionamiento gratis', 'Wifi', 'Calificado con 5 de 5 en limpieza']",2023-07-02,2023-07-07,,$49 USD,noche,298,2023-06-24,2023-05-01,239.9193548387097
817362883201609776,Departamento moderno y confortable,entire_home,"4,63 (8)",Neuquén,-38.94721,-68.06325,"['2 camas', '1 dormitorio', '1 baño', 'Estacionamiento gratis', 'Wifi', 'Calificado con 4,6 de 5 en limpieza']",2023-07-01,2023-07-06,,$45 USD,noche,298,2023-06-24,2023-05-01,239.9193548387097
613845414836492796,Departamento Torre Quarz,entire_home,"4,8 (25)",Neuquén,-38.94836,-68.06218,"['2 camas', 'Monoambiente', '1 baño', 'Wifi', 'Calificado con 4,9 de 5 en limpieza']",2023-07-01,2023-07-06,$46 USD,$51 USD,noche,298,2023-06-24,2023-05-01,239.9193548387097
730363393464119980,2 Personas. Lugar súper cómodo,private_room,"4,68 (22)",Neuquén,-38.94764,-68.08145,"['1 baño compartido', '1 cama doble', 'Wifi', 'Calificado con 4,6 de 5 en limpieza']",2023-07-10,2023-07-15,,$12 USD,noche,298,2023-06-24,2023-05-01,239.9193548387097
742686726143047393,Studio cerca del centro Neuquen,entire_home,"4,75 (4)",Neuquén,-38.94388313430838,-68.04664221163941,"['2 camas', 'Monoambiente', '1 baño', 'Estacionamiento gratis', 'Wifi', 'Calificado con 4,5 de 5 en limpieza']",2023-07-01,2023-07-06,,$24 USD,noche,298,2023-06-24,2023-05-01,239.9193548387097
803657303081651211,Un oasis en Neuquén Capital,entire_home,"5,0 (3)",Neuquén,-38.9400954,-68.074063,"['5 camas', '3 dormitorios', '2,5 baños', '1 cama doble', '4 camas de una plaza', 'Estacionamiento gratis', 'Wifi', 'Calificado con 5 de 5 en limpieza']",2023-07-01,2023-07-06,$70 USD,$98 USD,noche,298,2023-06-24,2023-05-01,239.9193548387097
717469779653882476,Luminoso y cálido monoambiente en Neuquén,entire_home,"4,96 (23)",Neuquén,-38.95398703296117,-68.04769195396729,"['1 cama', '1 dormitorio', '1 baño', 'Wifi', 'Calificado con 4,9 de 5 en limpieza']",2023-07-01,2023-07-06,,$30 USD,noche,298,2023-06-24,2023-05-01,239.9193548387097
661388148387143050,Apart céntrico 2 dorm  c/ balcon  cochera opcional,entire_home,"5,0 (6)",Neuquén,-38.95141,-68.06174,"['3 camas', '2 dormitorios', '1 ,5 baños', 'Wifi', 'Calificado con 4,8 de 5 en limpieza']",2023-07-01,2023-07-08,,$50 USD,noche,298,2023-06-24,2023-05-01,239.9193548387097
38957425,Excelente dpto. en pleno Centro de Neuquén,entire_home,"4,95 (41)",Neuquén,-38.95076,-68.06162,"['4 camas', '1 dormitorio', '1 ,5 baños', '2 camas dobles', '2 sofás cama', 'Wifi', 'Calificado con 4,8 de 5 en limpieza']",2023-07-01,2023-07-06,,$60 USD,noche,298,2023-06-24,2023-05-01,239.9193548387097
614959671532733604,Santa Genoveva 1 dormitorio Excelentes vistas,entire_home,"5,0 (11)",Neuquén,-38.94974,-68.04468,"['3 camas', '1 dormitorio', '1 baño', '1 cama doble', '1 cama de una plaza', 'más', 'Wifi', 'Calificado con 4,8 de 5 en limpieza']",2023-07-23,2023-07-28,$30 USD,$41 USD,noche,298,2023-06-24,2023-05-01,239.9193548387097
747920397477323316,Departamento Amoblado,entire_home,Nuevo,Neuquén,-38.9423861,-68.0482102,"['1 cama', '1 dormitorio', '1 baño', 'Wifi']",2023-07-07,2023-07-12,,$31 USD,noche,298,2023-06-24,2023-05-01,239.9193548387097
640550672947984146,Hermoso dpto con estacionamiento incluido!,entire_home,"5,0 (17)",Neuquén,-38.9401496995907,-68.07299584276647,"['2 camas', '2 dormitorios', '1 baño', '1 cama doble', '1 cama de una plaza', 'Estacionamiento gratis', 'Wifi', 'Calificado con 5 de 5 en limpieza']",2023-07-01,2023-07-06,,$45 USD,noche,298,2023-06-24,2023-05-01,239.9193548387097
678310035931171958,Departamento en la costa del río Limay,entire_home,,Neuquén,-38.97751,-68.05025,"['3 camas', '2 dormitorios', '2 baños', '1 cama queen', '2 camas de una plaza', 'Estacionamiento gratis', 'Wifi']",2023-07-05,2023-07-10,,$79 USD,noche,298,2023-06-24,2023-05-01,239.9193548387097
28611966,"Para viajeros solitarios, tu casa en Neuquén!",private_room,"5,0 (57)",Neuquén,-38.945594787597656,-68.0500717163086,"['1 cama', '1 dormitorio', '1 baño privado', '1 cama queen', 'Wifi']",2023-08-02,2023-08-07,,$19 USD,noche,298,2023-06-24,2023-05-01,239.9193548387097
54111994,Hermosa cabaña para descansar Plottier. Neuquen,entire_home,"4,83 (30)",Neuquen,-38.96548,-68.25384,"['5 camas', '2 dormitorios', '1 baño', '1 cama doble', '1 cama de una plaza', 'más', 'Estacionamiento gratis', 'Wifi', 'Calificado con 4,9 de 5 en limpieza']",2023-07-01,2023-07-06,,$50 USD,noche,298,2023-06-24,2023-05-01,239.9193548387097
28672588,Limay Bed&Breakfast Cuádruple,entire_home,,Neuquén,-38.97931,-68.0602,"['4 camas', '1 dormitorio', '1 ,5 baños', 'Estacionamiento gratis', 'Wifi']",2023-07-01,2023-07-06,,$114 USD,noche,298,2023-06-24,2023-05-01,239.9193548387097
781194860945251353,Fantastico Departamento!,entire_home,Nuevo,Neuquén,-38.94191,-68.04517,"['1 cama', '1 dormitorio', '1 ,5 baños', '1 cama doble', 'Estacionamiento gratis', 'Wifi']",2023-07-10,2023-07-15,$62 USD,$77 USD,noche,298,2023-06-24,2023-05-01,239.9193548387097
690770696681764750,"Excelente ubicación, vista panorámica y cochera.",entire_home,"4,6 (5)",MDJ,-38.9428009,-68.0552711,"['1 cama', '1 dormitorio', '1 baño', '1 cama queen', 'Estacionamiento gratis', 'Wifi', 'Calificado con 4,8 de 5 en limpieza']",2023-07-01,2023-07-06,,$39 USD,noche,298,2023-06-24,2023-05-01,239.9193548387097
14910454,Apartamento Muy Còmodo y Espacioso ( Patagonia  ),entire_home,"4,92 (92)",Neuquén,-38.951,-68.10451,"['4 camas', '2 dormitorios', '1 baño', '1 cama king', '3 camas de una plaza', 'Wifi', 'Calificado con 5 de 5 en limpieza']",2023-07-01,2023-07-06,,$32 USD,noche,298,2023-06-24,2023-05-01,239.9193548387097
892894728917622833,Depto Lanin-Sta Genoveva-Nqn,entire_home,Nuevo,Neuquén,-38.94564414126068,-68.0450293389282,"['1 cama', '1 dormitorio', '1 baño', 'Wifi']",2023-07-01,2023-07-06,$32 USD,$40 USD,noche,298,2023-06-24,2023-05-01,239.9193548387097
33722564,2 - Pura tranquilidad en el corazón de Neuquén,shared_room,"4,72 (25)",Neuquén,-38.95362,-68.10349,"['1 cama', '1 dormitorio', '2 baños compartidos', '1 cama de una plaza', 'Estacionamiento gratis', 'Wifi', 'Calificado con 4,4 de 5 en limpieza']",2023-07-01,2023-07-06,,$12 USD,noche,298,2023-06-24,2023-05-01,239.9193548387097
33957495,3- Pura tranquilidad en el corazón de Neuquén,shared_room,"4,9 (10)",Neuquén,-38.95428,-68.10568,"['1 cama', '1 dormitorio', '2 baños compartidos', '1 cama de una plaza', 'Estacionamiento gratis', 'Wifi']",2023-07-01,2023-07-06,,$12 USD,noche,298,2023-06-24,2023-05-01,239.9193548387097
551649100670598308,Ubicación ideal en Ciudad de Neuquén.,entire_home,"4,67 (9)",Neuquén,-38.9434,-68.05631,"['2 camas', '1 dormitorio', '1 baño', '1 cama doble', '1 sofá cama', 'Estacionamiento gratis', 'Wifi', 'Calificado con 4,8 de 5 en limpieza']",2023-07-03,2023-07-08,,$26 USD,noche,298,2023-06-24,2023-05-01,239.9193548387097
28673402,Limay Bed&Breakfast Séxtuple,entire_home,"5,0 (6)",Neuquén,-38.97937,-68.06122,"['6 camas', '1 dormitorio', '1 baño', 'Estacionamiento gratis', 'Wifi', 'Calificado con 5 de 5 en limpieza']",2023-07-01,2023-07-08,,$156 USD,noche,298,2023-06-24,2023-05-01,239.9193548387097
31875462,"Con Cochera, ideal viajeros.",entire_home,"4,84 (85)",Neuquén,-38.93394,-68.07341,"['3 camas', '1 dormitorio', '1 baño', '1 cama doble', '2 camas de una plaza', 'Estacionamiento gratis', 'Wifi', 'Calificado con 4,9 de 5 en limpieza']",2023-07-02,2023-07-07,,$48 USD,noche,298,2023-06-24,2023-05-01,239.9193548387097
46098511,Alquilo departamento amueblado en pleno centro,entire_home,"5,0 (7)",Neuquén,-38.95142,-68.06214,"['3 camas', '3 dormitorios', '3 baños', '1 cama doble', '2 camas de una plaza', 'Estacionamiento gratis', 'Wifi', 'Calificado con 4,9 de 5 en limpieza']",2023-07-01,2023-07-06,,$119 USD,noche,298,2023-06-24,2023-05-01,239.9193548387097
35837842,"Monoambiente Nuevo, Cómodo y Luminoso",entire_home,"4,79 (43)",Neuquén,-38.95275,-68.07818,"['1 cama', 'Monoambiente', '1 baño', '1 cama queen', 'Wifi', 'Calificado con 4,9 de 5 en limpieza']",2023-07-01,2023-07-06,,$34 USD,noche,298,2023-06-24,2023-05-01,239.9193548387097
915467188489132445,Habitación con wifi. Baño compartido,private_room,Nuevo,Neuquén,-38.95270797264685,-68.07083576917648,"['1 cama', '1 dormitorio', '1 baño compartido', '1 cama doble', 'Wifi']",2023-07-01,2023-07-06,$24 USD,$30 USD,noche,298,2023-06-24,2023-05-01,239.9193548387097
811637498175849726,Luxury - Babel NQN,entire_home,,Neuquén,-38.95233,-68.06358,"['No hay evaluaciones', '4 camas', '3 dormitorios', '3,5 baños', '1 cama queen', '3 camas de una plaza', 'Estacionamiento gratis', 'Wifi', 'No hay evaluaciones']",2023-07-01,2023-07-08,,$88 USD,noche,298,2023-06-24,2023-05-01,239.9193548387097
34539785,Dpto  B° Lejos de Buenos Aires.,entire_home,"4,91 (69)",Neuquén,-38.95141,-68.114,"['3 camas', '1 dormitorio', '1 baño', '1 cama doble', '1 cama de una plaza', 'más', 'Estacionamiento gratis', 'Wifi', 'Calificado con 5 de 5 en limpieza']",2023-07-01,2023-07-06,,$47 USD,noche,298,2023-06-24,2023-05-01,239.9193548387097
804960727499903237,Babel Soft - Las Violetas,entire_home,"3,33 (3)",Neuquén,-38.94319,-68.05097,"['2 camas', '1 dormitorio', '1 baño', 'Estacionamiento gratis', 'Wifi', 'Calificado con 5 de 5 en limpieza']",2023-07-03,2023-07-08,,$30 USD,noche,298,2023-06-24,2023-05-01,239.9193548387097
822370130203674319,Excelente departamento 4 pax con cochera.,entire_home,"5,0 (7)",Neuquén,-38.94538,-68.0618,"['3 camas', '2 dormitorios', '1 ,5 baños', '1 cama queen', '2 camas de una plaza', 'Estacionamiento gratis', 'Wifi', 'Calificado con 5 de 5 en limpieza']",2023-07-01,2023-07-06,,$85 USD,noche,298,2023-06-24,2023-05-01,239.9193548387097
23116242,"Los Olivos Suites, depto 2 habit. c/coch. p/7p",entire_home,"4,75 (106)",Neuquén,-38.9437,-68.05609,"['5 camas', '2 dormitorios', '1 ,5 baños', '2 camas dobles', '3 camas de una plaza', 'Estacionamiento gratis', 'Wifi', 'Calificado con 4,6 de 5 en limpieza']",2023-07-25,2023-07-30,$84 USD,$97 USD,noche,298,2023-06-24,2023-05-01,239.9193548387097
906527379685266697,Periodistas Apartment,entire_home,Nuevo,Neuquén,-38.94703,-68.06079,"['3 camas', '1 dormitorio', '1 baño', 'Estacionamiento gratis', 'Wifi']",2023-07-31,2023-08-05,,$40 USD,noche,298,2023-06-24,2023-05-01,239.9193548387097
879123588927983907,Divino Departamento con Balcón,entire_home,Nuevo,Neuquén,-38.94355,-68.04681,"['2 camas', '1 dormitorio', '1 baño', '1 cama doble', '1 sofá cama', 'Wifi']",2023-07-01,2023-07-08,$41 USD,$45 USD,noche,298,2023-06-24,2023-05-01,239.9193548387097
44035668,Hermoso semipiso 3 dormitorios pleno centro,entire_home,,Neuquén,-38.95051,-68.05067,"['No hay evaluaciones', '4 camas', '3 dormitorios', '2,5 baños', '1 cama king', '1 cama doble', 'más', 'No hay evaluaciones', 'No hay evaluaciones']",2023-07-01,2023-07-08,,$90 USD,noche,298,2023-06-24,2023-05-01,239.9193548387097
788539781586101591,Bim 5,entire_home,,Neuquén,-38.94834,-68.06002,"['2 camas', '1 dormitorio', '1 baño', 'Estacionamiento gratis', 'Wifi']",2023-07-10,2023-07-15,,$35 USD,noche,298,2023-06-24,2023-05-01,239.9193548387097
915278824978350243,Monoambiente Acacias,entire_home,Nuevo,Cipolletti,-38.93805,-68.00174,"['2 camas', '1 dormitorio', '1 baño', 'Estacionamiento gratis', 'Wifi']",2023-07-01,2023-07-06,,$35 USD,noche,298,2023-06-24,2023-05-01,239.9193548387097
847228304171057100,Casita Amulén,entire_home,"5,0 (3)",Neuquén,-38.9618198,-68.0753943,"['4 camas', '2 dormitorios', '1 baño', 'Wifi', 'Calificado con 5 de 5 en limpieza']",2023-07-01,2023-07-06,,$48 USD,noche,298,2023-06-24,2023-05-01,239.9193548387097
699352390023248021,Duplex,entire_home,Nuevo,Neuquén,-38.94458,-68.07413,"['2 camas', '2 dormitorios', '2 baños', 'Estacionamiento gratis', 'Wifi']",2023-07-01,2023-07-06,$36 USD,$45 USD,noche,298,2023-06-24,2023-05-01,239.9193548387097
894182814266755924,Apartment Leloir,entire_home,Nuevo,Neuquén,-38.94121,-68.05476,"['3 camas', '2 dormitorios', '1 baño', 'Wifi']",2023-07-09,2023-07-14,,$40 USD,noche,298,2023-06-24,2023-05-01,239.9193548387097
8378298,Luminosa cabaña en amplio parque,entire_home,"4,87 (70)",Plottier,-38.95916,-68.22775,"['3 camas', '1 dormitorio', '1 baño', '1 cama king', '1 cama de una plaza', 'más', 'Estacionamiento gratis', 'Wifi', 'Calificado con 5 de 5 en limpieza']",2023-07-01,2023-07-07,,$36 USD,noche,298,2023-06-24,2023-05-01,239.9193548387097
42385205,Murmullos de sueños,entire_home,Nuevo,Cipolletti,-38.92813,-68.01175,"['2 camas', '1 dormitorio', '1 baño', 'Estacionamiento gratis', 'Wifi']",2023-07-01,2023-07-06,,$35 USD,noche,298,2023-06-24,2023-05-01,239.9193548387097
43739631,Habitación privada en alquiler por día.,private_room,,Neuquén,-38.94389,-68.06283,"['1 cama', '1 dormitorio', '2 baños compartidos', '1 cama doble', 'Estacionamiento gratis', 'Wifi']",2023-07-01,2023-07-06,,$25 USD,noche,298,2023-06-24,2023-05-01,239.9193548387097
34683504,Loft Limay Bed&Breakfast,entire_home,"5,0 (5)",Neuquén,-38.97899,-68.06138,"['3 camas', 'Monoambiente', '1 baño', 'Estacionamiento gratis', 'Wifi', 'Calificado con 5 de 5 en limpieza']",2023-07-01,2023-07-06,,$114 USD,noche,298,2023-06-24,2023-05-01,239.9193548387097
849909872407519915,Mono Ambiente con Balcón. Centro,entire_home,"4,44 (9)",Neuquén,-38.95514,-68.05337,"['2 camas', 'Monoambiente', '1 baño', '2 camas dobles', '2 sofás cama', 'Estacionamiento gratis', 'Wifi', 'Calificado con 4,7 de 5 en limpieza']",2023-09-10,2023-09-15,,$28 USD,noche,298,2023-06-24,2023-05-01,239.9193548387097
21681812,La casa del mandala,private_room,"4,88 (89)",Neuquén,-38.97311,-68.0617,"['1 baño compartido', '2 camas de una plaza', 'Estacionamiento gratis', 'Wifi', 'Calificado con 4,9 de 5 en limpieza']",2023-08-01,2023-08-06,,$30 USD,noche,298,2023-06-24,2023-05-01,239.9193548387097
902938534870515516,Pionero,entire_home,Nuevo,Neuquén,-38.9480552718082,-68.04525439101562,"['1 cama', '1 dormitorio', '1 baño', '1 cama king', 'Estacionamiento gratis', 'Wifi']",2023-09-01,2023-09-08,$56 USD,$70 USD,noche,298,2023-06-24,2023-05-01,239.9193548387097
35676378,1- Pura Tranquilidad en el Corazón de Neuquén,private_room,"4,6 (10)",Neuquén,-38.95444,-68.10569,"['1 cama', '1 dormitorio', '1 cama de una plaza', 'Estacionamiento gratis', 'Wifi', 'Calificado con 4,1 de 5 en limpieza']",2023-07-01,2023-07-06,,$20 USD,noche,298,2023-06-24,2023-05-01,239.9193548387097
898306051954673174,Loft Boho Chic,entire_home,Nuevo,Plottier,-38.95191,-68.24417,"['1 cama', 'Monoambiente', '1 baño', 'Estacionamiento gratis', 'Wifi']",2023-07-01,2023-07-06,$58 USD,$72 USD,noche,298,2023-06-24,2023-05-01,239.9193548387097
688433801108777336,"zona residencial, y segura",entire_home,"5,0 (10)",Neuquén,-38.94951058639214,-68.1041219830513,"['3 camas', '1 dormitorio', '1 baño', 'Estacionamiento gratis', 'Wifi', 'Calificado con 4,9 de 5 en limpieza']",2023-07-23,2023-07-28,,$34 USD,noche,298,2023-06-24,2023-05-01,239.9193548387097
837127197406674087,2 ambientes en el centro,entire_home,Nuevo,Neuquén,-38.9498527,-68.0526405,"['No hay evaluaciones', '2 camas', '1 dormitorio', '1 baño', 'Wifi', 'No hay evaluaciones']",2023-07-01,2023-07-06,$33 USD,$42 USD,noche,298,2023-06-24,2023-05-01,239.9193548387097
839801572966247279,Casa Quincho Ideal para familias.,entire_home,,Plottier,-38.92964,-68.23342,"['No hay evaluaciones', '3 camas', '3 dormitorios', '2 baños', 'Estacionamiento gratis', 'Wifi', 'No hay evaluaciones', 'No hay evaluaciones']",2023-07-30,2023-08-04,,$80 USD,noche,298,2023-06-24,2023-05-01,239.9193548387097
43595844,Impecable DPTO. Coch+Pileta+SUM. Nuevo Luminoso.,entire_home,"4,75 (4)",Neuquén,-38.94838,-68.04579,"['2 camas', '1 dormitorio', '1 baño', '1 cama doble', '1 sofá cama', 'Estacionamiento gratis', 'Wifi', 'Calificado con 4,8 de 5 en limpieza']",2023-07-01,2023-07-06,,$57 USD,noche,298,2023-06-24,2023-05-01,239.9193548387097
837968355642470355,Departamento Neuquén centro A,entire_home,,Neuquén,-38.95121,-68.0641,"['No hay evaluaciones', '2 camas', '1 dormitorio', '1 ,5 baños', 'Wifi', 'No hay evaluaciones', 'No hay evaluaciones']",2023-07-01,2023-07-06,,$55 USD,noche,298,2023-06-24,2023-05-01,239.9193548387097
685624345010270874,"Casa dúplex , con patio",entire_home,,Neuquén,-38.9484,-68.11374,"['No hay evaluaciones', '3 camas', '2 dormitorios', '1 ,5 baños', 'Estacionamiento gratis', 'Wifi', 'No hay evaluaciones', 'No hay evaluaciones']",2023-07-01,2023-07-06,,$51 USD,noche,298,2023-06-24,2023-05-01,239.9193548387097
716543413734281131,"Dos habitaciones, casa amplia, jardín y parrilla.",private_room,,Neuquén,-38.95202,-68.07668,"['2 camas', '2 dormitorios', '1 baño privado', 'Estacionamiento gratis', 'Wifi']",2023-07-01,2023-07-06,,$22 USD,noche,298,2023-06-24,2023-05-01,239.9193548387097
736039033461728648,2 Amigos de viaje en un lugar comodo,private_room,"5,0 (4)",Neuquén,-38.94511,-68.08153,"['1 cama', '1 dormitorio', '1 baño compartido', '1 cama doble', 'Wifi', 'Calificado con 5 de 5 en limpieza']",2023-07-24,2023-07-29,,$13 USD,noche,298,2023-06-24,2023-05-01,239.9193548387097
891897211265718663,Hermoso y amplio departamento!,entire_home,Nuevo,Neuquén,-38.9494,-68.04049,"['1 cama', '1 dormitorio', '1 baño', 'Estacionamiento gratis', 'Wifi']",2023-07-01,2023-07-06,,$40 USD,noche,298,2023-06-24,2023-05-01,239.9193548387097
828241524700671263,Pehuen 46 II,entire_home,,Neuquén,-38.95476493218023,-68.04646155180507,"['No hay evaluaciones', '2 camas', '1 dormitorio', '1 baño', '1 cama doble', '1 sofá cama', 'Estacionamiento gratis', 'Wifi', 'No hay evaluaciones']",2023-07-01,2023-07-06,,$35 USD,noche,298,2023-06-24,2023-05-01,239.9193548387097
897719417897352568,¡Alq. a pasos de Fundación Medica en Cipolletti!,entire_home,Nuevo,Cipolletti,-38.93991,-68.0019,"['1 cama', '1 dormitorio', '1 baño', 'Wifi']",2023-07-01,2023-07-06,,$32 USD,noche,298,2023-06-24,2023-05-01,239.9193548387097
26037321,"Habitación privada, céntrica y tranquila",private_room,"4,91 (11)",Neuquén,-38.94492,-68.06246,"['1 cama', '3 dormitorios', '2 baños compartidos', '1 cama doble', 'Estacionamiento gratis', 'Wifi']",2023-07-01,2023-07-06,,$25 USD,noche,298,2023-06-24,2023-05-01,239.9193548387097
54018147,0 - Pura Tranquilidad en el Corazón de Neuquén,private_room,"4,67 (3)",Neuquén,-38.95313,-68.10546,"['2 camas', '1 dormitorio', '2 baños compartidos', '2 camas de una plaza', 'Estacionamiento gratis', 'Wifi']",2023-07-01,2023-07-06,,$24 USD,noche,298,2023-06-24,2023-05-01,239.9193548387097
783245811709248171,Casita en plottier súper segura,entire_home,"4,63 (8)",Confluencia,-38.94562,-68.25176,"['4 camas', '2 dormitorios', '1 baño', 'Estacionamiento gratis', 'Wifi', 'Calificado con 5 de 5 en limpieza']",2023-07-01,2023-07-06,,$51 USD,noche,298,2023-06-24,2023-05-01,239.9193548387097
782590180913517506,Departamento 1 dormitorio NQN,entire_home,,Neuquén,-38.94301463792551,-68.05572016931154,"['1 cama', '1 dormitorio', '1 baño', 'Wifi']",2023-07-12,2023-07-19,,$45 USD,noche,298,2023-06-24,2023-05-01,239.9193548387097
21516164,Departamento sobre ruta 22 Plottier,entire_home,"4,86 (22)",Confluencia,-38.9563,-68.23011,"['3 camas', '1 dormitorio', '1 baño', '1 cama doble', '2 camas de una plaza', 'Estacionamiento gratis', 'Wifi', 'Calificado con 5 de 5 en limpieza']",2023-07-01,2023-07-06,,$45 USD,noche,298,2023-06-24,2023-05-01,239.9193548387097
858520971532062848,Plaza Caviahue Apartment II NQN,entire_home,,Neuquén,-38.94338,-68.05622,"['No hay evaluaciones', '4 camas', '1 dormitorio', '1 baño', 'Wifi', 'No hay evaluaciones', 'No hay evaluaciones']",2023-07-03,2023-07-10,$47 USD,$59 USD,noche,298,2023-06-24,2023-05-01,239.9193548387097
910922403565632767,Confortable casa en zona céntrica,entire_home,Nuevo,Neuquen,-38.95039,-68.08052,"['5 camas', '3 dormitorios', '2 baños', '1 cama doble', '4 camas de una plaza', 'Estacionamiento gratis', 'Wifi']",2023-07-27,2023-08-01,,$99 USD,noche,298,2023-06-24,2023-05-01,239.9193548387097
913610159893611362,Apart Rivadavia 340,entire_home,Nuevo,Neuquén,-38.95318,-68.05462,"['2 camas', 'Monoambiente', '1 baño', 'Wifi']",2023-07-02,2023-07-07,,$59 USD,noche,298,2023-06-24,2023-05-01,239.9193548387097
42634145,Murmullos de Sueños.-,entire_home,,Cipolletti,-38.92795,-68.01298,"['2 camas', '1 dormitorio', '1 baño', '1 cama de una plaza', 'Wifi']",2023-07-01,2023-07-06,,$20 USD,noche,298,2023-06-24,2023-05-01,239.9193548387097
579026916207068038,Monoambiente nivel ejecutivo zona centro Neuquén.,entire_home,,Neuquén,-38.953239,-68.063423,"['2 camas', 'Monoambiente', '1 baño', '1 cama doble', '1 sofá cama', 'Wifi']",2023-07-01,2023-07-06,,$36 USD,noche,298,2023-06-24,2023-05-01,239.9193548387097
23925384,MIG tu depto en Neuquen,entire_home,"4,88 (25)",Neuquén,-38.94742,-68.05629,"['1 cama', '1 dormitorio', '1 baño', '1 cama doble', '1 sofá cama', 'Wifi', 'Calificado con 5 de 5 en limpieza']",2024-01-15,2024-01-20,,$12 USD,noche,298,2023-06-24,2023-05-01,239.9193548387097
11167504,"La Clarita, Puente de Palos, casa de descanso.",entire_home,"4,9 (67)",Centenario,-38.87437,-68.07599,"['1 cama', '1 dormitorio', '1 baño', '1 cama doble', 'Estacionamiento gratis', 'Wifi', 'Calificado con 4,9 de 5 en limpieza']",2023-08-11,2023-08-16,,$24 USD,noche,298,2023-06-24,2023-05-01,239.9193548387097
885604762704456829,Hab. privada con cama matrimonial 1.40 m.,private_room,Nuevo,Cipolletti,-38.931880734414676,-67.9684341338684,"['1 cama', '1 dormitorio', 'Baño de visitas', 'Estacionamiento gratis', 'Wifi']",2023-07-01,2023-07-06,,$20 USD,noche,298,2023-06-24,2023-05-01,239.9193548387097
842936153967499941,Excelente ubicación Depto 1 dorm,entire_home,,Neuquén,-38.9532009,-68.0634168,"['No hay evaluaciones', '1 cama', '1 dormitorio', '1 baño', 'Wifi', 'No hay evaluaciones', 'No hay evaluaciones']",2023-07-01,2023-07-06,,$36 USD,noche,298,2023-06-24,2023-05-01,239.9193548387097
810083074082367782,Departamento luminoso centrico,entire_home,,Neuquén,-38.94956,-68.05497,"['No hay evaluaciones', '1 cama', 'Monoambiente', '1 baño', 'Wifi', 'No hay evaluaciones', 'No hay evaluaciones']",2023-10-02,2023-10-07,,$22 USD,noche,298,2023-06-24,2023-05-01,239.9193548387097
906751625852578545,Departamento reciclado,entire_home,Nuevo,Neuquén,-38.9492451481795,-68.0333686619997,"['2 camas', '1 dormitorio', '1 baño', 'Wifi']",2023-07-08,2023-07-13,$26 USD,$33 USD,noche,298,2023-06-24,2023-05-01,239.9193548387097
858615923911091711,Monoambiente H&O,entire_home,Nuevo,Cipolletti,-38.93918174252061,-68.00127871334553,"['2 camas', '1 dormitorio', '1 baño', 'Wifi']",2023-07-01,2023-07-06,,$72 USD,noche,298,2023-06-24,2023-05-01,239.9193548387097
600000166244200012,Departamentos Leloir,entire_home,"4,33 (6)",Neuquén,-38.94279479980469,-68.04622650146484,"['3 camas', '2 dormitorios', '1 ,5 baños', '1 cama queen', '2 camas de una plaza', 'Estacionamiento gratis', 'Wifi', 'Calificado con 4,3 de 5 en limpieza']",2023-07-03,2023-07-08,,$68 USD,noche,298,2023-06-24,2023-05-01,239.9193548387097
797024319695917961,Hermoso departamento en pleno centro,entire_home,"4,75 (4)",Neuquén,-38.95284,-68.05753,"['4 camas', '3 dormitorios', '2 baños', '2 camas dobles', '2 camas de una plaza', 'Wifi', 'Calificado con 5 de 5 en limpieza']",2023-09-07,2023-09-14,$50 USD,$55 USD,noche,298,2023-06-24,2023-05-01,239.9193548387097
918988836999320780,Al Paso,entire_home,Nuevo,Plottier,-38.955202718946765,-68.22525842052515,"['2 camas', '1 dormitorio', '1 baño', 'Estacionamiento gratis', 'Wifi']",2023-07-01,2023-07-06,,$73 USD,noche,298,2023-06-24,2023-05-01,239.9193548387097
873787230281403038,Condo in Neuquen Downtown,entire_home,Nuevo,Neuquén,-38.94907,-68.06051,"['2 camas', '2 dormitorios', '1 baño', 'Wifi']",2023-07-01,2023-07-06,$80 USD,$100 USD,noche,298,2023-06-24,2023-05-01,239.9193548387097
607883977563892075,"Depto con piscina, gimnasio y seguridad 24 horas",entire_home,,Neuquén,-38.94814,-68.04377,"['No hay evaluaciones', '1 cama', '1 dormitorio', '1 baño', 'Estacionamiento gratis', 'Wifi', 'No hay evaluaciones', 'No hay evaluaciones']",2023-07-01,2023-07-06,,$79 USD,noche,298,2023-06-24,2023-05-01,239.9193548387097
809747842069626522,Casa - Quincho y parque,entire_home,,Neuquén,-38.93435423628115,-68.12368132174015,"['No hay evaluaciones', '4 camas', '3 dormitorios', '1 baño', 'Estacionamiento gratis', 'Wifi', 'No hay evaluaciones', 'No hay evaluaciones']",2023-07-03,2023-07-08,,$33 USD,noche,298,2023-06-24,2023-05-01,239.9193548387097
815951591179105029,Luminoso Departamento en Neuquén,entire_home,,Neuquén,-38.94893,-68.04306,"['No hay evaluaciones', '1 cama', '1 dormitorio', '2 baños', 'Wifi', 'No hay evaluaciones', 'No hay evaluaciones']",2023-07-01,2023-07-06,,$99 USD,noche,298,2023-06-24,2023-05-01,239.9193548387097
725190261433113800,Lujoso departamento de dos habitaciones,entire_home,"5,0 (3)",Neuquén,-38.94297,-68.06117,"['2 camas', '2 dormitorios', '1 ,5 baños', 'Wifi', 'Calificado con 5 de 5 en limpieza']",2023-07-01,2023-07-08,,$87 USD,noche,298,2023-06-24,2023-05-01,239.9193548387097
873742755590556492,Hermoso monoambiente NUEVO!,entire_home,Nuevo,Neuquén,-38.95314,-68.06727,"['No hay evaluaciones', '1 cama', 'Monoambiente', '1 baño', 'Wifi', 'No hay evaluaciones']",2023-07-01,2023-07-06,$38 USD,$48 USD,noche,298,2023-06-24,2023-05-01,239.9193548387097
18600709,Tu Hogar en Neuquen,entire_home,"4,86 (35)",Neuquén,-38.94174,-68.05095,"['8 camas', '2 dormitorios', '1 baño', '1 cama doble', '3 camas de una plaza', 'más', 'Wifi', 'Calificado con 4,8 de 5 en limpieza']",2023-07-02,2023-07-07,$135 USD,$150 USD,noche,298,2023-06-24,2023-05-01,239.9193548387097
573086798433420049,Los Paraisos - Duplex con parrilla,entire_home,,Neuquén,-38.947,-68.10056,"['3 camas', '2 dormitorios', '2,5 baños', '1 cama doble', '2 camas de una plaza', 'Estacionamiento gratis', 'Wifi']",2023-07-01,2023-07-06,,$72 USD,noche,298,2023-06-24,2023-05-01,239.9193548387097
738951769209656776,"Casa cómoda, ideal para familias a 16 cuadras",entire_home,,Neuquén,-38.94776,-68.08273,"['6 camas', '4 dormitorios', '1 baño', 'Estacionamiento gratis', 'Wifi']",2023-07-01,2023-07-06,,$59 USD,noche,298,2023-06-24,2023-05-01,239.9193548387097
857445568658045487,VioletPatagonia,entire_home,,Neuquén,-38.94146,-68.05284,"['No hay evaluaciones', '3 camas', '2 dormitorios', '1 baño', 'Estacionamiento gratis', 'Wifi', 'No hay evaluaciones', 'No hay evaluaciones']",2023-07-07,2023-07-12,$84 USD,$104 USD,noche,298,2023-06-24,2023-05-01,239.9193548387097
872525679703009065,Depto céntrico para 5 personas,entire_home,Nuevo,Neuquén,-38.95388,-68.06582,"['4 camas', '2 dormitorios', '1 baño', '1 cama doble', '2 camas de una plaza', 'más', 'Wifi']",2023-07-24,2023-07-29,$73 USD,$91 USD,noche,298,2023-06-24,2023-05-01,239.9193548387097
766605002053365683,Centro - BIM 8°,entire_home,,Neuquén,-38.9486643,-68.0604737,"['No hay evaluaciones', '2 camas', '1 dormitorio', '1 baño', 'Wifi', 'No hay evaluaciones', 'No hay evaluaciones']",2023-07-10,2023-07-15,,$45 USD,noche,298,2023-06-24,2023-05-01,239.9193548387097
614415954368166225,Departamento RUBI. zona residencial.,entire_home,,Neuquén,-38.94975,-68.04171,"['1 cama', '1 dormitorio', '1 ,5 baños', '1 cama king', 'Estacionamiento gratis', 'Wifi']",2023-07-02,2023-07-09,,$74 USD,noche,298,2023-06-24,2023-05-01,239.9193548387097
28084820,Departamento cerca del Río Grande,entire_home,"5,0 (3)",Neuquén,-38.97509,-68.05672,"['1 cama', '1 dormitorio', '1 baño', '1 cama doble', 'Estacionamiento gratis', 'Wifi', 'Calificado con 4,7 de 5 en limpieza']",2023-07-01,2023-07-06,,$51 USD,noche,298,2023-06-24,2023-05-01,239.9193548387097
52021932,Monoambiente buen punto de llegada y partida,entire_home,"4,94 (16)",Neuquén,-38.94637,-68.11153,"['2 camas', '1 dormitorio', '1 baño', 'Estacionamiento gratis', 'Wifi', 'Calificado con 4,9 de 5 en limpieza']",2023-07-01,2023-07-06,,$75 USD,noche,298,2023-06-24,2023-05-01,239.9193548387097
731780281076650008,Familia. Casa cómoda,entire_home,"4,2 (5)",Neuquén,-38.94709,-68.08229,"['4 camas', '3 dormitorios', '1 ,5 baños', '1 cama king', 'Estacionamiento gratis', 'Wifi', 'Calificado con 4 de 5 en limpieza']",2023-07-10,2023-07-15,,$67 USD,noche,298,2023-06-24,2023-05-01,239.9193548387097
803568715201404272,Departamento céntrico en Neuquén,entire_home,"5,0 (3)",Neuquén,-38.95451200000001,-68.055291,"['2 camas', '2 dormitorios', '1 baño', '2 camas dobles', 'Estacionamiento gratis', 'Wifi', 'Calificado con 5 de 5 en limpieza']",2023-07-01,2023-07-06,,$60 USD,noche,298,2023-06-24,2023-05-01,239.9193548387097
42090684,Depto dos pax con vista,entire_home,,Neuquén,-38.93327,-68.14383,"['No hay evaluaciones', '1 cama', '1 dormitorio', '1 baño', '1 cama doble', 'Estacionamiento gratis', 'Wifi', 'No hay evaluaciones']",2023-12-01,2023-12-06,,$59 USD,noche,298,2023-06-24,2023-05-01,239.9193548387097
13998536,Habitación privada,private_room,"4,73 (15)",Neuquén,-38.94611,-68.0672,[],2023-07-01,2023-07-06,,$9 USD,noche,298,2023-06-24,2023-05-01,239.9193548387097
21927225,"Casa de campo sobre ruta 22- ""Brisas del Limay""",entire_home,"4,9 (64)",,-38.95679,-68.26101,"['5 camas', '3 dormitorios', '2 baños', '1 cama queen', '4 camas de una plaza', 'Estacionamiento gratis', 'Calificado con 4,9 de 5 en limpieza']",2023-07-01,2023-07-06,,$79 USD,noche,298,2023-06-24,2023-05-01,239.9193548387097
884876933592191166,departamento para 4/5 personas,entire_home,Nuevo,Neuquén,-38.95304,-68.07882,"['4 camas', '2 dormitorios', '2 baños', 'Wifi']",2023-07-01,2023-07-06,,$79 USD,noche,298,2023-06-24,2023-05-01,239.9193548387097
857813092018755887,Departamento un dormitorio,entire_home,,Neuquén,-38.9483,-68.08952,"['2 camas', '1 dormitorio', '1 baño', 'Estacionamiento gratis', 'Wifi']",2023-07-01,2023-07-06,,$45 USD,noche,298,2023-06-24,2023-05-01,239.9193548387097
26215495,Cómodo departamento en el Centro de Cipolletti.,entire_home,"4,89 (19)",Cipolletti,-38.94231,-67.98964,"['3 camas', '2 dormitorios', '1 baño', '1 cama doble', '2 camas de una plaza', 'Wifi', 'Calificado con 4,8 de 5 en limpieza']",2023-07-01,2023-07-08,$47 USD,$52 USD,noche,298,2023-06-24,2023-05-01,239.9193548387097
36340914,Moderno y luminoso dpto. en el centro de Neuquen.,entire_home,"5,0 (14)",Neuquén,-38.95311,-68.05848,"['1 cama', '1 dormitorio', '1 baño', '1 cama doble', 'Wifi', 'Calificado con 5 de 5 en limpieza']",2023-07-01,2023-07-06,,$59 USD,noche,298,2023-06-24,2023-05-01,239.9193548387097
879067075236004734,Excelente Dpto en Neuquén.,entire_home,Nuevo,Neuquén,-38.95375,-68.12694,"['3 camas', '2 dormitorios', '1 baño', 'Estacionamiento gratis', 'Wifi']",2023-07-01,2023-07-06,$57 USD,$71 USD,noche,298,2023-06-24,2023-05-01,239.9193548387097
863566985727115033,Dúplex Hermoso y Luminoso!,entire_home,,Neuquén,-38.921061417021576,-68.08019647672117,"['No hay evaluaciones', '3 camas', '3 dormitorios', '2 baños', 'Estacionamiento gratis', 'Wifi', 'No hay evaluaciones', 'No hay evaluaciones']",2023-07-01,2023-07-07,$94 USD,$118 USD,noche,298,2023-06-24,2023-05-01,239.9193548387097
690096974567012251,Departamento con amoblamiento a estrenar,entire_home,,Q8302ATE,-38.94885,-68.08804,"['No hay evaluaciones', '2 camas', '1 dormitorio', '1 ,5 baños', 'Estacionamiento gratis', 'Wifi', 'No hay evaluaciones', 'No hay evaluaciones']",2023-07-01,2023-07-06,,$51 USD,noche,298,2023-06-24,2023-05-01,239.9193548387097
22523381,Excelente departamento y ubicación,entire_home,"4,87 (115)",Neuquén,-38.94145,-68.0636,"['4 camas', '1 dormitorio', '1 baño', '4 camas de una plaza', 'Wifi', 'Calificado con 4,9 de 5 en limpieza']",2023-07-01,2023-07-06,,$59 USD,noche,298,2023-06-24,2023-05-01,239.9193548387097
821270097406761812,Pehuen 46 I,entire_home,,Neuquén,-38.95467,-68.04664,"['No hay evaluaciones', '2 camas', '1 dormitorio', '1 baño', '1 cama doble', '1 sofá cama', 'Estacionamiento gratis', 'Wifi', 'No hay evaluaciones']",2023-07-04,2023-07-11,,$38 USD,noche,298,2023-06-24,2023-05-01,239.9193548387097
823234764183216913,Dpto 1 dorm pleno centro,entire_home,,Neuquén,-38.958633959145644,-68.06056592613459,"['No hay evaluaciones', '1 cama', '1 dormitorio', '1 baño', 'Wifi', 'No hay evaluaciones', 'No hay evaluaciones']",2023-07-01,2023-07-06,,$32 USD,noche,298,2023-06-24,2023-05-01,239.9193548387097
915374444740312126,Monoambiente a estrenar centro,entire_home,Nuevo,Neuquén,-38.9505315,-68.0694256,"['1 cama', '1 dormitorio', '1 baño', 'Estacionamiento gratis', 'Wifi']",2023-07-18,2023-07-23,$40 USD,$50 USD,noche,298,2023-06-24,2023-05-01,239.9193548387097
719485899637095838,Departamento amueblado moderno para dos personas,entire_home,,Neuquén,-38.97383,-68.05929,"['No hay evaluaciones', '1 cama', '1 dormitorio', '1 baño', 'Estacionamiento gratis', 'Wifi', 'No hay evaluaciones', 'No hay evaluaciones']",2023-07-01,2023-07-06,,$60 USD,noche,298,2023-06-24,2023-05-01,239.9193548387097
41321385,6 - Pura tranquilidad en el corazón de Neuquén,private_room,"4,5 (4)",Neuquén,-38.95341,-68.10627,"['2 baños compartidos', '1 cama doble', 'Estacionamiento gratis', 'Wifi', 'Calificado con 4 de 5 en limpieza']",2023-07-01,2023-07-06,,$40 USD,noche,298,2023-06-24,2023-05-01,239.9193548387097
760932256894779814,Centro - BIM 5°,entire_home,,Neuquén,-38.94873105131092,-68.06085993809816,"['2 camas', '1 dormitorio', '1 baño', 'Wifi']",2023-07-10,2023-07-15,,$45 USD,noche,298,2023-06-24,2023-05-01,239.9193548387097
544914706745066154,Plaza Caviahue Apartment en Neuquén Capital,entire_home,,Neuquén,-38.94202,-68.05469,"['2 camas', '1 dormitorio', '1 baño', 'Wifi']",2023-09-14,2023-09-20,,$50 USD,noche,298,2023-06-24,2023-05-01,239.9193548387097
891565292344373926,Departamento Alto Neuquén,entire_home,Nuevo,MDJ,-38.942704830366424,-68.05543385446072,"['2 camas', '2 dormitorios', '1 baño', 'Estacionamiento gratis', 'Wifi']",2023-07-02,2023-07-08,$40 USD,$50 USD,noche,298,2023-06-24,2023-05-01,239.9193548387097
831164056448451302,Departamento con balcón,entire_home,,Neuquén,-38.925274171341705,-68.05265072733164,"['1 cama', '1 dormitorio', '1 baño', '1 cama doble', '1 cama de una plaza', 'más', 'Estacionamiento gratis', 'Wifi']",2023-07-17,2023-07-22,,$37 USD,noche,298,2023-06-24,2023-05-01,239.9193548387097
30321832,Alquiler de departamento temporario,entire_home,"4,43 (35)",Neuquén,-38.94564,-68.05246,"['1 cama', 'Monoambiente', '1 baño', 'Wifi', 'Calificado con 4,3 de 5 en limpieza']",2023-07-01,2023-07-06,,$34 USD,noche,298,2023-06-24,2023-05-01,239.9193548387097
806084395290171068,Fantástico departamento,entire_home,,Neuquén,-38.952599,-68.1278334,"['3 camas', '2 dormitorios', '1 baño', 'Estacionamiento gratis', 'Wifi']",2023-07-01,2023-07-06,,$73 USD,noche,298,2023-06-24,2023-05-01,239.9193548387097
28719133,30%off. Moto 2 personas.,private_room,"4,71 (21)",Neuquén,-38.9333,-68.15414,"['1 cama', '1 dormitorio', '1 baño compartido', '1 cama doble', 'Estacionamiento gratis', 'Wifi']",2023-07-01,2023-07-06,,$44 USD,noche,298,2023-06-24,2023-05-01,239.9193548387097
41688833,Casa con vista y acceso al Lago en El Chocón,entire_home,,Neuquén,-38.9515,-68.05888,"['4 camas', '2 dormitorios', '1 baño', '1 cama doble', '1 cama de una plaza', 'más', 'Estacionamiento gratis', 'Wifi']",2023-07-01,2023-07-06,,$59 USD,noche,298,2023-06-24,2023-05-01,239.9193548387097
821571652109771936,Departamento 1 dorm c/ balcón,entire_home,,Neuquén,-38.94303132708911,-68.05565579629518,"['1 cama', '1 dormitorio', '1 baño', 'Wifi']",2023-07-10,2023-07-16,,$45 USD,noche,298,2023-06-24,2023-05-01,239.9193548387097
841351978350010114,Habitacion y estar independiente,private_room,"3,67 (3)",Neuquén,-38.96260726781991,-68.03258954057576,"['2 camas', '1 dormitorio', '2 baños', 'Estacionamiento gratis', 'Wifi']",2023-07-01,2023-07-06,,$32 USD,noche,298,2023-06-24,2023-05-01,239.9193548387097
13803835,Habitación privada en departamento compartido,private_room,"3,0 (3)",Neuquén,-38.94563,-68.06689,"['1 cama', '1 dormitorio']",2023-07-01,2023-07-06,,$9 USD,noche,298,2023-06-24,2023-05-01,239.9193548387097
691436380089538272,"Cipolletti Casa250m2 C/Pileta, 8 Pax-Min 01 Semana",entire_home,,Cipolletti,-38.9511405,-67.9858782,"['6 camas', '3 dormitorios', '3 baños', 'Estacionamiento gratis', 'Wifi']",2023-07-01,2023-07-06,,$180 USD,noche,298,2023-06-24,2023-05-01,239.9193548387097
39383876,Hermoso Duplex luminoso con terraza,entire_home,"4,92 (25)",Neuquén,-38.96193,-68.08122,"['3 camas', '2 dormitorios', '2 baños', '1 cama queen', '2 camas de una plaza', 'Estacionamiento gratis', 'Wifi', 'Calificado con 5 de 5 en limpieza']",2024-01-01,2024-01-06,,$58 USD,noche,298,2023-06-24,2023-05-01,239.9193548387097
45759058,Departamento amoblado a nuevo,entire_home,"4,73 (11)",Cipolletti,-38.94296,-67.98241,"['2 camas', '1 dormitorio', '1 baño', '1 cama doble', '1 sofá cama', 'Wifi', 'Calificado con 4,6 de 5 en limpieza']",2023-07-01,2023-07-06,,$57 USD,noche,298,2023-06-24,2023-05-01,239.9193548387097
41389351,"alojamiento entero
4 huespedes",entire_home,,Neuquén,-38.97625,-68.0434,"['No hay evaluaciones', '3 camas', '1 dormitorio', '1 baño', '1 cama doble', '1 sofá cama', 'Estacionamiento gratis', 'Wifi', 'No hay evaluaciones']",2023-07-01,2023-07-06,,$51 USD,noche,298,2023-06-24,2023-05-01,239.9193548387097
628315438594207176,Amplio departamento centrico 2 dormitorios,entire_home,,Neuquén,-38.95165,-68.0445,"['4 camas', '2 dormitorios', '1 baño', 'Estacionamiento gratis', 'Wifi']",2023-07-01,2023-07-06,,$59 USD,noche,298,2023-06-24,2023-05-01,239.9193548387097
52371078,El mejor mantener el lugar secreto y además,private_room,,Neuquén,-38.95159,-68.17466,"['No hay evaluaciones', '1 baño privado', 'Estacionamiento gratis', 'No hay evaluaciones', 'No hay evaluaciones']",2023-07-01,2023-07-06,,$20 USD,noche,298,2023-06-24,2023-05-01,239.9193548387097
876833636921860586,Pleno centro Neuquen -alto,entire_home,Nuevo,Neuquén,-38.9530645,-68.0652072,"['No hay evaluaciones', '2 camas', '1 dormitorio', '1 baño', 'Wifi', 'No hay evaluaciones', 'No hay evaluaciones']",2023-07-01,2023-07-06,$47 USD,$59 USD,noche,298,2023-06-24,2023-05-01,239.9193548387097
824484820620362452,Excelente Departamento Torre de la Costa,entire_home,,Neuquén,-38.95864673638701,-68.02317277349995,"['2 camas', '1 dormitorio', '1 baño', 'Estacionamiento gratis', 'Wifi']",2023-07-01,2023-07-06,,$99 USD,noche,298,2023-06-24,2023-05-01,239.9193548387097
22929455,Departamento barrio San Pablo,private_room,"4,5 (17)",Cipolletti,-38.94496,-67.98285,"['1 cama', '2 dormitorios', '1 baño compartido', '1 cama doble', '1 cama de una plaza', 'Wifi']",2023-07-01,2023-07-06,,$9 USD,noche,298,2023-06-24,2023-05-01,239.9193548387097
739302775005502135,Hermoso y moderno departamento! estadías largas,entire_home,,JKB,-38.94697,-68.05006,"['1 cama', '1 dormitorio', '1 baño', 'Wifi']",2023-07-01,2023-07-06,,$44 USD,noche,298,2023-06-24,2023-05-01,239.9193548387097
855137839829601101,Casa cómoda iluminada en zona tranquila y segura,entire_home,Nuevo,Cipolletti,-38.93061,-67.9995,"['No hay evaluaciones', '3 camas', '2 dormitorios', '1 baño', 'Wifi', 'No hay evaluaciones', 'No hay evaluaciones']",2023-07-01,2023-07-06,$47 USD,$59 USD,noche,298,2023-06-24,2023-05-01,239.9193548387097
838404646613177051,Hermoso dpto en pleno Centro 12 C NQN,entire_home,,Neuquén,-38.95225,-68.06476,"['3 camas', '1 dormitorio', '1 baño', 'Wifi']",2024-04-01,2024-04-07,,$45 USD,noche,298,2023-06-24,2023-05-01,239.9193548387097
746447501150411586,Habitación Genial. Súper cómoda para viajeros,private_room,"4,73 (15)",Neuquén,-38.94741,-68.08283,"['1,5 baños compartidos', '1 cama king', '2 camas de una plaza', 'Estacionamiento gratis', 'Wifi', 'Calificado con 4,7 de 5 en limpieza']",2023-07-01,2023-07-06,,$36 USD,noche,298,2023-06-24,2023-05-01,239.9193548387097
651446721456756885,Depto hermoso con estacionamiento incluido.,entire_home,"4,83 (6)",Neuquén,-38.9494,-68.05253,"['2 camas', '1 dormitorio', '1 baño', '1 cama queen', '1 sofá cama']",2023-07-01,2023-07-06,,$59 USD,noche,298,2023-06-24,2023-05-01,239.9193548387097
53934589,Casa moderna y tranquila en un amplio terreno,entire_home,Nuevo,Cipolletti,-38.90447,-67.99472,"['No hay evaluaciones', '4 camas', '3 dormitorios', '2,5 baños', 'Estacionamiento gratis', 'Wifi', 'No hay evaluaciones', 'No hay evaluaciones']",2023-07-01,2023-07-06,,$138 USD,noche,298,2023-06-24,2023-05-01,239.9193548387097
30098993,3 dormitorios. cama matrimonial + 3 de una plaza,private_room,"5,0 (8)",Neuquén,-38.92369,-68.07704,"['3 camas', '2 dormitorios', '2 baños compartidos']",2023-07-01,2023-07-06,,$36 USD,noche,298,2023-06-24,2023-05-01,239.9193548387097
715234401046472374,Hermoso dpto. a una cuadra de Av. Argentina,entire_home,,Neuquén,-38.95292,-68.05771,"['No hay evaluaciones', '2 camas', '1 dormitorio', '1 ,5 baños', '1 cama queen', '1 cama doble', 'Wifi']",2023-07-01,2023-07-06,,$45 USD,noche,298,2023-06-24,2023-05-01,239.9193548387097
28540980,DEPARTAMENTO LIMAY II,entire_home,"5,0 (4)",Neuquén,-38.96322,-68.02859,"['3 camas', '1 dormitorio', '1 baño', '1 cama doble', '2 camas de una plaza', 'más', 'Estacionamiento gratis', 'Wifi', 'Calificado con 5 de 5 en limpieza']",2023-07-02,2023-07-07,,$32 USD,noche,298,2023-06-24,2023-05-01,239.9193548387097
48756755,Departamento amueblado,entire_home,"4,5 (4)",Cipolletti,-38.94222,-67.98326,"['2 camas', '1 dormitorio', '1 baño', '1 cama doble', '1 sofá cama', 'Wifi', 'Calificado con 4,5 de 5 en limpieza']",2023-07-01,2023-07-06,,$44 USD,noche,298,2023-06-24,2023-05-01,239.9193548387097
41145872,Edificio Nikemen Dpto 8 c/patio y cochera cubierta,entire_home,"5,0 (18)",Neuquén,-38.97128,-68.04974,"['2 camas', '1 dormitorio', '1 baño', '1 cama doble', '1 sofá cama', 'Estacionamiento gratis', 'Wifi', 'Calificado con 5 de 5 en limpieza']",2023-07-09,2023-07-14,,$95 USD,noche,298,2023-06-24,2023-05-01,239.9193548387097
831209328855554547,Casa dos habitaciones,entire_home,,Neuquén,-38.96611,-68.04935,"['4 camas', '2 dormitorios', '1 baño', '1 cama doble', '3 camas de una plaza', 'Wifi']",2023-09-10,2023-09-17,,$52 USD,noche,298,2023-06-24,2023-05-01,239.9193548387097
858162721049283162,"Casa Sol solar,a mts del río.",entire_home,,Las Perlas,-38.98253,-68.13999,"['No hay evaluaciones', '1 cama', '1 dormitorio', '1 baño', 'Estacionamiento gratis', 'Wifi', 'No hay evaluaciones', 'No hay evaluaciones']",2023-07-01,2023-07-06,$21 USD,$27 USD,noche,298,2023-06-24,2023-05-01,239.9193548387097
33630880,Dpto.  céntrico. Cerca del Monumento a San Martín.,entire_home,"5,0 (11)",Neuquén,-38.95278,-68.05611,"['4 camas', '3 dormitorios', '2 baños', '1 cama queen', '3 camas de una plaza', 'Estacionamiento gratis', 'Wifi', 'Calificado con 4,9 de 5 en limpieza']",2023-07-01,2023-07-06,,$100 USD,noche,298,2023-06-24,2023-05-01,239.9193548387097
48145206,11-E Espectacular departamento Alto Neuquen,entire_home,,Neuquén,-38.94399,-68.04737,"['No hay evaluaciones', '2 camas', '1 dormitorio', '1 baño', '2 camas de una plaza', 'Wifi', 'No hay evaluaciones']",2023-07-01,2023-07-06,,$59 USD,noche,298,2023-06-24,2023-05-01,239.9193548387097
22567391,Departamento céntrico Cipolletti,entire_home,"5,0 (15)",Cipolletti,-38.93949,-67.99509,"['1 cama', '1 dormitorio', '1 baño', '1 cama doble', 'Wifi', 'Calificado con 4,9 de 5 en limpieza']",2023-07-01,2023-07-06,,$71 USD,noche,298,2023-06-24,2023-05-01,239.9193548387097
51735487,Departamento con balcón en complejo residencial,entire_home,,Cipolletti,-38.92815,-67.99934,"['1 cama', '1 dormitorio', '1 baño', 'Wifi']",2023-07-01,2023-07-06,,$51 USD,noche,298,2023-06-24,2023-05-01,239.9193548387097
792160959784973499,Hermoso departamento centrico,entire_home,,Neuquén,-38.95061,-68.05973,"['1 cama', '1 dormitorio', '1 baño', 'Wifi']",2023-07-01,2023-07-06,,$40 USD,noche,298,2023-06-24,2023-05-01,239.9193548387097
22901633,"Mi espacio, tu espacio!",entire_home,"4,39 (18)",Neuquén,-38.95672,-68.08264,"['3 camas', '1 dormitorio', '1 ,5 baños', '1 cama doble', '2 sofás cama', 'Estacionamiento gratis', 'Wifi', 'Calificado con 4,6 de 5 en limpieza']",2023-07-01,2023-07-06,,$58 USD,noche,298,2023-06-24,2023-05-01,239.9193548387097
862987897159647375,Departamento Amoblado Neuquén,entire_home,,Neuquén,-38.9481,-68.06183,"['No hay evaluaciones', '1 cama', '1 dormitorio', '1 baño', 'Wifi', 'No hay evaluaciones', 'No hay evaluaciones']",2023-07-01,2023-07-06,$47 USD,$59 USD,noche,298,2023-06-24,2023-05-01,239.9193548387097
53105728,LOFT RESIDENCIAL ALTO COMAHUE DE COMPRAS!!,entire_home,,Neuquén,-38.94145,-68.06308,"['No hay evaluaciones', '2 camas', 'Monoambiente', '1 baño', '2 camas de una plaza', 'Wifi', 'No hay evaluaciones']",2023-07-01,2023-07-06,,$20 USD,noche,298,2023-06-24,2023-05-01,239.9193548387097
678351386809115205,Hermoso Departamento en Cipolletti,entire_home,,Cipolletti,-38.93657,-67.99245,"['2 camas', '1 dormitorio', '1 baño', 'Wifi']",2023-12-29,2024-01-03,,$40 USD,noche,298,2023-06-24,2023-05-01,239.9193548387097
15753173,Moderno y acogedor departamento en zona centrica,entire_home,"4,91 (35)",Neuquén,-38.94312,-68.05316,"['3 camas', '1 dormitorio', '1 baño', '1 cama queen', '1 sofá cama', 'Estacionamiento gratis', 'Wifi', 'Calificado con 4,9 de 5 en limpieza']",2023-07-01,2023-07-06,$85 USD,$95 USD,noche,298,2023-06-24,2023-05-01,239.9193548387097
829674156687956832,Mono ambiente Luminoso,entire_home,,KCN,-38.95174,-68.0444,"['No hay evaluaciones', '1 cama', '1 dormitorio', '1 baño', 'Wifi', 'No hay evaluaciones']",2023-07-01,2023-07-06,,$48 USD,noche,298,2023-06-24,2023-05-01,239.9193548387097
32817094,Dpto con balcón terraza excelente vista,entire_home,"4,72 (18)",Neuquén,-38.94272,-68.0459,"['3 camas', '1 dormitorio', '1 baño', '2 camas queen', '1 cama doble', 'Estacionamiento gratis', 'Wifi', 'Calificado con 4,8 de 5 en limpieza']",2023-07-02,2023-07-07,,$61 USD,noche,298,2023-06-24,2023-05-01,239.9193548387097
30049426,DEPARTAMENTO LIMAY I,entire_home,,Neuquén,-38.96288,-68.02822,"['3 camas', '1 dormitorio', '1 baño', '1 cama doble', '2 camas de una plaza', 'más', 'Estacionamiento gratis', 'Wifi']",2023-07-02,2023-07-07,,$36 USD,noche,298,2023-06-24,2023-05-01,239.9193548387097
588559931833580141,Hermoso departamento en pleno centro de Cipolletti,entire_home,,Cipolletti,-38.93768,-67.9902,"['No hay evaluaciones', '2 camas', '2 dormitorios', '1 baño', '2 camas queen', 'Wifi', 'No hay evaluaciones']",2023-07-01,2023-07-06,,$79 USD,noche,298,2023-06-24,2023-05-01,239.9193548387097
826077606681970295,Don Bosco 1ero,entire_home,,Neuquén,-38.96627,-68.06603,"['2 camas', '1 dormitorio', '1 baño', 'Estacionamiento gratis', 'Wifi']",2023-07-01,2023-07-06,,$59 USD,noche,298,2023-06-24,2023-05-01,239.9193548387097
822601586110686138,Casa en Puerto Manzano,entire_home,,Neuquén,-38.9541,-68.09596,"['No hay evaluaciones', '7 camas', '3 dormitorios', '2 baños', 'Estacionamiento gratis', 'Wifi', 'No hay evaluaciones', 'No hay evaluaciones']",2023-07-01,2023-07-06,,$151 USD,noche,298,2023-06-24,2023-05-01,239.9193548387097
791291911547250814,Alojamiento V.E,entire_home,,Neuquén,-38.95411856574549,-68.06630920618773,"['3 camas', '2 dormitorios', '1 baño', 'Wifi']",2023-07-01,2023-07-06,,$79 USD,noche,298,2023-06-24,2023-05-01,239.9193548387097
848876725737805421,Departamento céntrico JUANA,entire_home,,Neuquén,-38.9505668,-68.06820979999999,"['No hay evaluaciones', '1 cama', '1 dormitorio', '1 baño', 'Wifi', 'No hay evaluaciones', 'No hay evaluaciones']",2023-07-01,2023-07-06,,$40 USD,noche,298,2023-06-24,2023-05-01,239.9193548387097
865981864850437447,"Mono ambiente ""El Vasco""",private_room,Nuevo,Neuquén,-38.947928372212566,-68.08732431381941,"['No hay evaluaciones', '1 cama', '1 dormitorio', '1 baño privado', 'Wifi', 'No hay evaluaciones']",2023-07-01,2023-07-06,,$27 USD,noche,298,2023-06-24,2023-05-01,239.9193548387097
770811620727154311,Casa para 4 personas zona centro,entire_home,,Neuquén,-38.960219067983154,-68.0567779764533,"['No hay evaluaciones', '3 camas', '2 dormitorios', '1 baño', '1 cama doble', '2 camas de una plaza', 'Wifi', 'No hay evaluaciones']",2023-07-02,2023-07-09,,$57 USD,noche,298,2023-06-24,2023-05-01,239.9193548387097
39766652,Pausa a 5 minutos del centro,entire_home,,Neuquén,-38.92192,-68.05294,"['3 camas', '2 dormitorios', '1 ,5 baños', '1 cama doble', '2 camas de una plaza', 'Estacionamiento gratis', 'Wifi']",2023-07-01,2023-07-06,,$55 USD,noche,298,2023-06-24,2023-05-01,239.9193548387097
861057026737385554,"Dpto 1 dorm, pleno centro de Nqn",private_room,,Neuquén,-38.94859640239413,-68.06067790836096,"['No hay evaluaciones', '1 cama', '1 dormitorio', 'Wifi', 'No hay evaluaciones', 'No hay evaluaciones']",2023-07-01,2023-07-06,,$77 USD,noche,298,2023-06-24,2023-05-01,239.9193548387097
16877982,30% off. Moto  más 2 personas. Hab compartida.,shared_room,"4,67 (39)",Neuquén,-38.93244,-68.15248,"['2 camas', '1 dormitorio', '1 baño compartido', '2 camas de una plaza', 'Estacionamiento gratis', 'Wifi', 'Calificado con 4,6 de 5 en limpieza']",2023-07-01,2023-07-06,,$57 USD,noche,298,2023-06-24,2023-05-01,239.9193548387097
53682310,"Dúplex, 4 personas, 10 mins del centro Conf Urbana",entire_home,,Neuquén,-38.95899,-68.02547,"['No hay evaluaciones', '4 camas', 'Monoambiente', '1 ,5 baños', 'Estacionamiento gratis', 'Wifi', 'No hay evaluaciones', 'No hay evaluaciones']",2023-07-02,2023-07-07,,$73 USD,noche,298,2023-06-24,2023-05-01,239.9193548387097
37618942,Departamentos Alberdi Neuquén,entire_home,"4,79 (15)",Neuquén,-38.95251,-68.05752,"['3 camas', '1 dormitorio', '1 baño', '1 cama queen', '1 cama de una plaza', 'más', 'Wifi', 'Calificado con 5 de 5 en limpieza']",2023-07-26,2023-07-31,,$89 USD,noche,298,2023-06-24,2023-05-01,239.9193548387097
53825088,La Encantada,entire_home,,Plottier,-38.96332,-68.27894,"['No hay evaluaciones', '1 cama', 'Monoambiente', '1 baño', '1 cama doble', 'No hay evaluaciones', 'No hay evaluaciones']",2023-07-31,2023-08-07,,$18 USD,noche,298,2023-06-24,2023-05-01,239.9193548387097
15774741,Casa muy cómoda cerca del río y paseos,entire_home,,Neuquen,-38.91831,-68.05525,"['No hay evaluaciones', '2 camas', '2 dormitorios', '1 baño', 'Estacionamiento gratis', 'Wifi', 'No hay evaluaciones', 'No hay evaluaciones']",2023-07-01,2023-07-06,,$75 USD,noche,298,2023-06-24,2023-05-01,239.9193548387097
33334407,Monoambiente para 2 personas en Neuquen,entire_home,"4,71 (7)",Neuquén,-38.944332122802734,-68.10015869140625,"['1 cama', 'Monoambiente', '1 baño', '1 cama doble', 'Wifi', 'Calificado con 4,6 de 5 en limpieza']",2023-07-10,2023-07-17,,$40 USD,noche,298,2023-06-24,2023-05-01,239.9193548387097
882074661869942539,hermoso depto,entire_home,Nuevo,Neuquén,-38.9619,-68.07822,"['2 camas', '1 dormitorio', '1 baño', 'Wifi']",2023-07-01,2023-07-06,$46 USD,$57 USD,noche,298,2023-06-24,2023-05-01,239.9193548387097
633886484310436903,La casita ErreBé,entire_home,,Neuquén,-38.945507,-68.059532,"['3 camas', '2 dormitorios', '1 baño', 'Wifi']",2023-08-02,2023-08-07,,$63 USD,noche,298,2023-06-24,2023-05-01,239.9193548387097
52373276,El Atardecer zona shopping de la Patagonia,entire_home,,Neuquén,-38.94808,-68.07527,"['No hay evaluaciones', '1 cama', '1 dormitorio', '2 baños', '1 cama queen', 'Estacionamiento gratis', 'Wifi', 'No hay evaluaciones']",2023-07-01,2023-07-06,,$71 USD,noche,298,2023-06-24,2023-05-01,239.9193548387097
50458404,Hermoso Loft  en pleno centro de Neuquen,entire_home,"5,0 (4)",Neuquén,-38.94903,-68.05986,"['4 camas', '1 dormitorio', '1 baño', '1 cama queen', '1 cama doble', 'más', 'Wifi', 'Calificado con 5 de 5 en limpieza']",2023-07-01,2023-07-06,,$162 USD,noche,298,2023-06-24,2023-05-01,239.9193548387097
53625519,Alojamiento Rivadavia,entire_home,"5,0 (3)",Cipolletti,-38.93553,-68.00713,"['3 camas', 'Monoambiente', '1 baño', 'Wifi', 'Calificado con 5 de 5 en limpieza']",2023-07-01,2023-07-07,,$55 USD,noche,298,2023-06-24,2023-05-01,239.9193548387097
896280194416783327,Aires de la Costa,entire_home,Nuevo,Neuquén,-38.9741801,-68.0433346,"['2 camas', 'Monoambiente', '1 baño', 'Estacionamiento gratis', 'Wifi']",2023-07-01,2023-07-06,,$50 USD,noche,298,2023-06-24,2023-05-01,239.9193548387097
870512232785156941,Monoambiente,entire_home,Nuevo,Neuquén,-38.9514049,-68.0665842,"['No hay evaluaciones', '1 cama', 'Monoambiente', '1 baño', 'Wifi', 'No hay evaluaciones', 'No hay evaluaciones']",2023-07-01,2023-07-06,$46 USD,$57 USD,noche,298,2023-06-24,2023-05-01,239.9193548387097
53105919,CENTRO DE LOFT!! ALTO COMAHUE COMPRAS!!,entire_home,,Neuquén,-38.94304,-68.06274,"['No hay evaluaciones', '2 camas', 'Monoambiente', '1 baño', '1 cama queen', '1 cama de una plaza', 'Wifi', 'No hay evaluaciones']",2023-07-01,2023-07-06,,$20 USD,noche,298,2023-06-24,2023-05-01,239.9193548387097
751555420130352720,Hermoso depto centro Neuquén,entire_home,,Neuquén,-38.95277,-68.05562,"['No hay evaluaciones', '1 cama', '1 dormitorio', '1 baño', 'Wifi', 'No hay evaluaciones', 'No hay evaluaciones']",2023-07-09,2023-07-14,,$64 USD,noche,298,2023-06-24,2023-05-01,239.9193548387097
816584286903661146,Bruna apart,entire_home,,Neuquén,-38.95366,-68.06653,"['No hay evaluaciones', '3 camas', '2 dormitorios', '1 baño', 'Estacionamiento gratis', 'Wifi', 'No hay evaluaciones', 'No hay evaluaciones']",2023-07-01,2023-07-06,,$91 USD,noche,298,2023-06-24,2023-05-01,239.9193548387097
829574033573661357,"Villa María, don Bosco 1125.",entire_home,,Neuquén,-38.96776,-68.06426,"['No hay evaluaciones', '1 cama', '1 dormitorio', '1 baño', 'Estacionamiento gratis', 'Wifi', 'No hay evaluaciones', 'No hay evaluaciones']",2023-07-01,2023-07-06,,$55 USD,noche,298,2023-06-24,2023-05-01,239.9193548387097
54179269,Hermoso departamento 2 pasajeros,entire_home,"5,0 (8)",Neuquén,-38.94257,-68.05392,"['1 cama', '1 dormitorio', '1 baño', '1 cama doble', 'Estacionamiento gratis', 'Wifi', 'Calificado con 5 de 5 en limpieza']",2023-09-01,2023-09-06,,$48 USD,noche,298,2023-06-24,2023-05-01,239.9193548387097
49712036,Departamento Céntrico Neuquen Capital nuevo,entire_home,"5,0 (4)",Neuquén,-38.95453,-68.06862,"['3 camas', '1 dormitorio', '1 baño', '1 cama doble', '2 camas de una plaza', 'Estacionamiento gratis', 'Wifi', 'Calificado con 5 de 5 en limpieza']",2023-07-01,2023-07-06,,$99 USD,noche,298,2023-06-24,2023-05-01,239.9193548387097
35734921,4 - Pura tranquilidad en el corazón de Neuquén,private_room,"3,75 (4)",Neuquén,-38.95317,-68.1059,"['3 camas', '2 dormitorios', '1 cama doble', '2 camas de una plaza', 'Estacionamiento gratis', 'Wifi']",2023-07-01,2023-07-06,,$55 USD,noche,298,2023-06-24,2023-05-01,239.9193548387097
35213605,CÉNTRICO LOFT Alto Comahue Shopping!!!,entire_home,,Q8300MDJ,-38.94187,-68.06513,"['No hay evaluaciones', '1 cama', '1 dormitorio', '1 baño', '1 cama doble', 'Wifi', 'No hay evaluaciones']",2023-07-01,2023-07-06,,$20 USD,noche,298,2023-06-24,2023-05-01,239.9193548387097
36034884,¡¡Bienvenidos AMI quincho!!,entire_home,"4,8 (10)",Neuquén,-38.95288,-68.03232,"['4 camas', '1 dormitorio', '1 baño', '1 cama doble', '2 camas de una plaza', 'más', 'Wifi', 'Calificado con 4,6 de 5 en limpieza']",2023-07-01,2023-07-06,,$62 USD,noche,298,2023-06-24,2023-05-01,239.9193548387097
870770974790974455,Depto 1 Dormitorio Neuquén,entire_home,Nuevo,Neuquén,-38.94646476657804,-68.05464528501034,"['No hay evaluaciones', '1 cama', '1 dormitorio', '1 baño', 'Wifi', 'No hay evaluaciones', 'No hay evaluaciones']",2023-07-01,2023-07-06,,$68 USD,noche,298,2023-06-24,2023-05-01,239.9193548387097
879805798836958445,Hermoso depto en la mejor zona de Nqn,entire_home,Nuevo,Neuquén,-38.94868117162927,-68.05204047206166,"['2 camas', '1 dormitorio', '1 baño', '1 cama king', '1 cama de una plaza', 'Wifi']",2023-07-01,2023-07-06,,$47 USD,noche,298,2023-06-24,2023-05-01,239.9193548387097
754442243360992989,"Tu casa en Neuquen, lo de Nano.",entire_home,,Neuquén,-38.9604444,-68.0493717,"['No hay evaluaciones', '2 camas', '2 dormitorios', '1 baño', 'Estacionamiento gratis', 'Wifi', 'No hay evaluaciones', 'No hay evaluaciones']",2023-07-22,2023-07-29,$53 USD,$59 USD,noche,298,2023-06-24,2023-05-01,239.9193548387097
833251451686101343,FLOMA Alquiler Temporario,entire_home,,Neuquén,-38.95463,-68.09319,"['No hay evaluaciones', '3 camas', '2 dormitorios', '1 baño', 'Wifi', 'No hay evaluaciones', 'No hay evaluaciones']",2023-07-09,2023-07-15,,$62 USD,noche,298,2023-06-24,2023-05-01,239.9193548387097
53103915,¡DÚPLEX RESIDENCIAL! ¡ALTO COMAHUE DE COMPRAS!,entire_home,,Neuquén,-38.94227,-68.0623,"['No hay evaluaciones', '2 camas', '1 dormitorio', '1 baño', '1 cama queen', '1 cama de una plaza', 'Wifi', 'No hay evaluaciones']",2023-07-01,2023-07-06,,$26 USD,noche,298,2023-06-24,2023-05-01,239.9193548387097
878902407464873092,Monoambiente en suite,entire_home,Nuevo,Neuquén,-38.95411,-68.08427,"['2 camas', 'Monoambiente', '1 baño', 'Estacionamiento gratis', 'Wifi']",2023-07-01,2023-07-06,$53 USD,$66 USD,noche,298,2023-06-24,2023-05-01,239.9193548387097
37603595,5 - Pura tranquilidad en el corazón de Neuquén,shared_room,,Confluencia Department,-38.95184,-68.0581,"['2 camas', '2 dormitorios', '2 baños compartidos', '1 cama doble', '1 cama de una plaza', 'Estacionamiento gratis', 'Wifi']",2023-07-01,2023-07-06,,$60 USD,noche,298,2023-06-24,2023-05-01,239.9193548387097
33422894,Hermosa y cálida!,private_room,,Neuquén,-38.94429,-68.04776,"['3 camas', '2 dormitorios', '1 baño compartido', '1 cama doble', '1 cama de una plaza', 'Estacionamiento gratis', 'Wifi', 'No hay evaluaciones']",2023-07-01,2023-07-06,,$24 USD,noche,298,2023-06-24,2023-05-01,239.9193548387097
902210732743493865,Amplia Casa Nivel Gerencial Nqn,entire_home,Nuevo,Neuquén,-38.9256182834166,-68.05092561216432,"['5 camas', '3 dormitorios', '3 baños', 'Estacionamiento gratis', 'Wifi']",2023-08-07,2023-08-13,,$220 USD,noche,298,2023-06-24,2023-05-01,239.9193548387097
49179716,Moderno departamento para 4 personas,entire_home,"4,67 (3)",Cipolletti,-38.94887,-67.98344,"['4 camas', '1 dormitorio', '1 baño', '1 cama doble', '1 cama de una plaza', 'más', 'Estacionamiento gratis', 'Wifi', 'Calificado con 5 de 5 en limpieza']",2023-08-17,2023-08-22,,$47 USD,noche,298,2023-06-24,2023-05-01,239.9193548387097
47372143,Dúplex amoblados de dos dormitorios,entire_home,,Confluencia,-38.954,-68.20396,"['4 camas', '2 dormitorios', '2 baños', '1 cama doble', '2 camas de una plaza', 'Estacionamiento gratis', 'Wifi']",2023-07-01,2023-07-06,,$100 USD,noche,298,2023-06-24,2023-05-01,239.9193548387097
814500878441793574,Jardines Departamento,entire_home,,Neuquén,-38.977332270843746,-68.06983262300491,"['1 cama', 'Monoambiente', '1 baño', 'Estacionamiento gratis', 'Wifi']",2023-07-01,2023-07-06,,$57 USD,noche,298,2023-06-24,2023-05-01,239.9193548387097
903093772979229006,"Dpto acogedor, céntrico y seguro",entire_home,Nuevo,Cipolletti,-38.94101,-67.98019,"['3 camas', '1 dormitorio', '1 baño', 'Wifi']",2023-07-01,2023-07-06,,$39 USD,noche,298,2023-06-24,2023-05-01,239.9193548387097
54181126,Hermoso estudio centro de Cipo! Amueblados Comahue,entire_home,,Cipolletti,-38.93958,-68.00075,"['3 camas', 'Monoambiente', '1 baño', '2 camas de una plaza', '1 sofá cama', 'Estacionamiento gratis', 'Wifi']",2023-07-01,2023-07-06,,$50 USD,noche,298,2023-06-24,2023-05-01,239.9193548387097
840591995681353436,Amplio y cómodo dpto familiar,entire_home,,Cipolletti,-38.94253092144899,-67.98554349999998,"['No hay evaluaciones', '3 camas', '1 dormitorio', '1 baño', '1 cama king', '1 cucheta', 'Estacionamiento gratis', 'Wifi', 'No hay evaluaciones']",2023-07-31,2023-08-05,,$83 USD,noche,298,2023-06-24,2023-05-01,239.9193548387097
36808035,Las Martínez,entire_home,"4,89 (9)",Neuquén,-38.95277,-68.06764,"['3 camas', '2 dormitorios', '1 baño', '1 cama queen', '2 camas de una plaza', 'Wifi', 'Calificado con 5 de 5 en limpieza']",2023-10-01,2023-10-06,,$70 USD,noche,298,2023-06-24,2023-05-01,239.9193548387097
720383497670578896,"Agradable casa 
con estacionamiento privado.",entire_home,,Cipolletti,-38.93819,-67.97513,"['5 camas', '2 dormitorios', '1 ,5 baños', '1 cama doble', '4 camas de una plaza', 'Estacionamiento gratis', 'Wifi']",2023-07-01,2023-07-06,,$79 USD,noche,298,2023-06-24,2023-05-01,239.9193548387097
24187472,"""La casa de Cielo """,private_room,,San Martín de Los Andes,-38.93623,-68.12333,"['1 cama', '1 dormitorio']",2023-07-01,2023-07-06,,$25 USD,noche,298,2023-06-24,2023-05-01,239.9193548387097
864683273673028486,"Dpto, Micro centro, N/ managerial",entire_home,,Neuquén,-38.94902,-68.06178,"['No hay evaluaciones', '1 cama', '1 dormitorio', '1 baño', 'Wifi', 'No hay evaluaciones', 'No hay evaluaciones']",2023-07-01,2023-07-06,,$77 USD,noche,298,2023-06-24,2023-05-01,239.9193548387097
16691196,30% de descuento. Casa de dormitorios completa. Netflix equipado.,entire_home,"4,41 (22)",Neuquén,-38.93281,-68.15209,"['4 camas', '2 dormitorios', '1 baño', '1 cama doble', '2 camas de una plaza', 'más', 'Estacionamiento gratis', 'Wifi', 'Calificado con 4,2 de 5 en limpieza']",2023-07-01,2023-07-06,,$99 USD,noche,298,2023-06-24,2023-05-01,239.9193548387097
40378869,Departamento Céntrico y amplio en Neuquen Capital,entire_home,,Neuquén,-38.95774,-68.06144,"['5 camas', '2 dormitorios', '1 baño', '2 camas dobles', '3 camas de una plaza', 'Wifi']",2023-09-01,2023-09-06,,$28 USD,noche,298,2023-06-24,2023-05-01,239.9193548387097
37599733,Alquiler.temporario_terrazas en Neuquén Capital,entire_home,,Neuquén,-38.92239,-68.07846,"['3 camas', '2 dormitorios', '1 ,5 baños', '3 camas dobles', 'Estacionamiento gratis', 'Wifi']",2023-07-01,2023-07-06,,$95 USD,noche,298,2023-06-24,2023-05-01,239.9193548387097
33031097,Monoambiente 40 mts2 moderno y luminoso,entire_home,"4,74 (60)",Neuquen,-38.95457,-68.07731,"['1 cama', '1 dormitorio', '1 ,5 baños', '1 cama doble', 'Wifi', 'Calificado con 4,8 de 5 en limpieza']",2023-12-01,2023-12-06,,$36 USD,noche,298,2023-06-24,2023-05-01,239.9193548387097
17587947,"Cabaña Don Manuel, para descansar y disfrutar",entire_home,"4,71 (52)",Neuquén,-38.95607,-68.15601,"['4 camas', '2 dormitorios', '1 baño', '1 cama doble', '3 camas de una plaza', 'más', 'Estacionamiento gratis', 'Wifi', 'Calificado con 4,9 de 5 en limpieza']",2023-09-13,2023-09-18,,$20 USD,noche,298,2023-06-24,2023-05-01,239.9193548387097
42638951,Departamento en Loft,entire_home,"4,67 (3)",Neuquén,-38.9593,-68.15543,"['2 camas', '1 dormitorio', 'Baño de visitas', '1 cama doble', '1 sofá cama', 'Estacionamiento gratis', 'Wifi', 'Calificado con 4,7 de 5 en limpieza']",2023-07-01,2023-07-06,,$77 USD,noche,298,2023-06-24,2023-05-01,239.9193548387097
705232918607607106,Hermoso departamento 4 personas,entire_home,,Neuquén,-38.94239,-68.05484,"['No hay evaluaciones', '3 camas', '1 dormitorio', '1 baño', 'Wifi', 'No hay evaluaciones', 'No hay evaluaciones']",2023-07-04,2023-07-09,,$52 USD,noche,298,2023-06-24,2023-05-01,239.9193548387097
733314004947054699,Departamento Leloir Neuquén,entire_home,,Neuquén,-38.94325,-68.0466,"['No hay evaluaciones', '1 cama', '1 dormitorio', '1 baño', 'Estacionamiento gratis', 'Wifi', 'No hay evaluaciones', 'No hay evaluaciones']",2023-07-11,2023-07-18,$50 USD,$55 USD,noche,298,2023-06-24,2023-05-01,239.9193548387097
45275721,Casa tipo duplex muy cómoda con patio y parrilla,entire_home,,Neuquén,-38.94342,-68.11297,"['4 camas', '2 dormitorios', '2 baños', '4 camas de una plaza', 'Estacionamiento gratis', 'Wifi']",2023-07-28,2023-08-02,,$62 USD,noche,298,2023-06-24,2023-05-01,239.9193548387097
12695507,Dpto nuevo a 5 ´del centro con estacionamiento,entire_home,,Neuquén,-38.9514,-68.07685,"['2 camas', '1 dormitorio', '1 baño', '1 cama doble', '1 sofá cama', 'Estacionamiento gratis', 'Wifi']",2024-05-01,2024-05-06,,$20 USD,noche,298,2023-06-24,2023-05-01,239.9193548387097
53511419,Departamento Centro,entire_home,,Neuquén,-38.95338,-68.06691,"['No hay evaluaciones', '2 camas', '1 dormitorio', '1 ,5 baños', 'Wifi', 'No hay evaluaciones', 'No hay evaluaciones']",2023-07-01,2023-07-06,,$67 USD,noche,298,2023-06-24,2023-05-01,239.9193548387097
587675039019946875,Hermoso departamento en Neuquén,entire_home,,Neuquén,-38.95083,-68.05656,"['4 camas', '3 dormitorios', '2 baños', 'Wifi']",2023-07-01,2023-07-06,,$106 USD,noche,298,2023-06-24,2023-05-01,239.9193548387097
20234351,BARDO,shared_room,,Neuquén,-38.94368,-68.05387,['No hay evaluaciones'],2023-07-01,2023-07-06,,$10 USD,noche,298,2023-06-24,2023-05-01,239.9193548387097
839758121679938488,Dpto en el centro de Cipolletti,entire_home,,Cipolletti,-38.9391772,-68.0012223,"['No hay evaluaciones', '1 cama', '1 dormitorio', '1 baño', 'Estacionamiento gratis', 'Wifi', 'No hay evaluaciones', 'No hay evaluaciones']",2023-09-04,2023-09-10,,$79 USD,noche,298,2023-06-24,2023-05-01,239.9193548387097
13407675,Un dormitorio Islas Malvinas,entire_home,,Neuquén,-38.94829,-68.04803,"['No hay evaluaciones', '3 camas', '1 dormitorio', '1 baño', 'Wifi', 'No hay evaluaciones', 'No hay evaluaciones']",2023-07-01,2023-07-06,,$59 USD,noche,298,2023-06-24,2023-05-01,239.9193548387097
802183115358139833,Loft Familiar en Neuquen Ex Ubic,entire_home,,Neuquén,-38.94991,-68.06118,"['No hay evaluaciones', '3 camas', '2 dormitorios', '1 baño', 'Wifi', 'No hay evaluaciones', 'No hay evaluaciones']",2023-07-01,2023-07-06,,$162 USD,noche,298,2023-06-24,2023-05-01,239.9193548387097
36036128,¡BienvenidosAMIquincho!,entire_home,,Neuquén,-38.95348,-68.03062,"['4 camas', '1 dormitorio', '1 baño', '1 cama doble', '2 camas de una plaza', 'más', 'Wifi']",2023-07-01,2023-07-06,,$62 USD,noche,298,2023-06-24,2023-05-01,239.9193548387097
758292279446313137,Departamento un dormitorio en Complejo con Piscina,entire_home,,Neuquén,-38.94974,-68.04382,"['No hay evaluaciones', '1 cama', '1 dormitorio', '1 baño', 'Wifi', 'No hay evaluaciones', 'No hay evaluaciones']",2023-07-01,2023-07-06,,$77 USD,noche,298,2023-06-24,2023-05-01,239.9193548387097
53108710,¡UN EXCLUSIVO CENTRO COMERCIAL DE COMAHUE! ¡Departamento 2 dormido!,entire_home,,Neuquén,-38.94121,-68.06396,"['No hay evaluaciones', '2 camas', '2 dormitorios', '1 baño', '1 cama queen', '1 cama de una plaza', 'Wifi', 'No hay evaluaciones']",2023-07-01,2023-07-06,,$36 USD,noche,298,2023-06-24,2023-05-01,239.9193548387097
43913833,Edificio Nikemen Dpto 5 c/patio y cochera cubierta,entire_home,"4,67 (3)",Neuquén,-38.97032,-68.04926,"['1 cama', '1 dormitorio', '1 baño', '1 cama doble', 'Estacionamiento gratis', 'Wifi', 'Calificado con 4,7 de 5 en limpieza']",2023-07-03,2023-07-08,,$95 USD,noche,298,2023-06-24,2023-05-01,239.9193548387097
53105603,¡CERCA DE LAS COMPRAS DE HILTON ALTO COMAHUE! ¡Dormitorio Dpto 2!,entire_home,,Neuquén,-38.94214,-68.06467,"['No hay evaluaciones', '4 camas', '2 dormitorios', '1 baño', '2 camas queen', '2 camas de una plaza', 'Wifi', 'No hay evaluaciones']",2023-07-01,2023-07-06,,$36 USD,noche,298,2023-06-24,2023-05-01,239.9193548387097
49091963,"Rústico, prolijo, acogedor.",entire_home,,Neuquén,-38.94514,-68.08172,"['No hay evaluaciones', '1 cama', '1 dormitorio', '1 baño', '1 cama queen', 'Wifi', 'No hay evaluaciones']",2023-08-12,2023-08-18,,$23 USD,noche,298,2023-06-24,2023-05-01,239.9193548387097
637669134786363076,Bahía Manzano -4 pax-Del 17/6 al 24 /6 de  2023,entire_home,,Neuquén,-38.96044,-68.10004,"['No hay evaluaciones', '3 camas', '1 dormitorio', '1 baño', '1 cama doble', '2 camas de una plaza', 'Estacionamiento gratis', 'Wifi']",2023-07-01,2023-07-08,,$80 USD,noche,298,2023-06-24,2023-05-01,239.9193548387097
764436631477924880,Casa en Barrio Los Arcos,entire_home,,Plottier,-38.94424,-68.1921799,"['No hay evaluaciones', '2 camas', '1 dormitorio', '1 baño', 'Estacionamiento gratis', 'Wifi', 'No hay evaluaciones', 'No hay evaluaciones']",2023-07-01,2023-07-06,,$40 USD,noche,298,2023-06-24,2023-05-01,239.9193548387097
46399823,"Apartamento a un kilómetro del centro, Cipolletti.",entire_home,"5,0 (4)",Cipolletti,-38.93786,-67.97923,"['1 cama', '1 dormitorio', '1 baño', '1 cama doble', 'Wifi', 'Calificado con 5 de 5 en limpieza']",2023-07-01,2023-07-06,,$69 USD,noche,298,2023-06-24,2023-05-01,239.9193548387097
796345935339210253,Departamento Amplio y Luminoso,entire_home,,Neuquén,-38.9499698,-68.0547017,"['No hay evaluaciones', '2 camas', '1 dormitorio', '2 baños', 'Estacionamiento gratis', 'Wifi', 'No hay evaluaciones', 'No hay evaluaciones']",2023-07-01,2023-07-06,,$64 USD,noche,298,2023-06-24,2023-05-01,239.9193548387097
791822527552782007,Compras en Dpto Alto Comahue,entire_home,,Neuquén,-38.94328,-68.06473,"['No hay evaluaciones', '3 camas', '2 dormitorios', '1 baño', 'Wifi', 'No hay evaluaciones', 'No hay evaluaciones']",2023-07-01,2023-07-06,,$59 USD,noche,298,2023-06-24,2023-05-01,239.9193548387097
36144936,Dpto nuevo con aire en una hermosa zona.,entire_home,"4,89 (19)",Neuquén,-38.94709,-68.04802,"['1 cama', '1 dormitorio', '1 baño', '1 cama doble', 'Wifi', 'Calificado con 4,8 de 5 en limpieza']",2023-08-01,2023-08-07,,$48 USD,noche,298,2023-06-24,2023-05-01,239.9193548387097
32223913,Mono-Leloir AMUEBLADOS COMAHUE,entire_home,,Neuquén,-38.94162,-68.05609,"['2 camas', 'Monoambiente', '0 baños', '1 sofá cama', 'Wifi']",2023-07-01,2023-07-06,,$53 USD,noche,298,2023-06-24,2023-05-01,239.9193548387097
31819008,¡DÚPLEX CÉNTRICO! ¡ALTO COMAHUE DE COMPRAS!,entire_home,,Neuquén,-38.94133,-68.06408,"['No hay evaluaciones', '3 camas', '1 dormitorio', '1 baño', '1 cama doble', '2 camas de una plaza', 'Wifi', 'No hay evaluaciones']",2023-07-01,2023-07-06,,$26 USD,noche,298,2023-06-24,2023-05-01,239.9193548387097
853518125031245252,Alquiler Bahia Manzano Resort,entire_home,,Neuquén,-38.96075,-68.09834,"['No hay evaluaciones', '3 camas', '1 dormitorio', '1 baño', 'Estacionamiento gratis', 'Wifi', 'No hay evaluaciones', 'No hay evaluaciones']",2023-07-01,2023-07-08,,$90 USD,noche,298,2023-06-24,2023-05-01,239.9193548387097
838527333615817084,Bruna apart te espera!,entire_home,,Neuquén,-38.95374,-68.06399,"['No hay evaluaciones', '3 camas', '2 dormitorios', '1 baño', 'Estacionamiento gratis', 'Wifi', 'No hay evaluaciones']",2023-09-01,2023-09-06,,$91 USD,noche,298,2023-06-24,2023-05-01,239.9193548387097
833878451226342434,El lugar de Ana - Am. Comahue,entire_home,,Neuquén,-38.9530645,-68.0652072,"['No hay evaluaciones', '3 camas', '1 dormitorio', '1 baño', 'Wifi', 'No hay evaluaciones', 'No hay evaluaciones']",2023-07-02,2023-07-08,,$59 USD,noche,298,2023-06-24,2023-05-01,239.9193548387097
780550736495180388,Patagonia,entire_home,,Cipolletti,-38.93971248894732,-67.9804198238037,"['No hay evaluaciones', '1 cama', '1 dormitorio', '1 baño', 'Wifi', 'No hay evaluaciones', 'No hay evaluaciones']",2023-07-01,2023-07-06,,$38 USD,noche,298,2023-06-24,2023-05-01,239.9193548387097
823305086572732414,Torre de jardín,entire_home,,Neuquén,-38.94162262220738,-68.05951684713364,"['2 camas', '2 dormitorios', '2 baños', 'Estacionamiento gratis', 'Wifi']",2023-08-01,2023-08-06,,$138 USD,noche,298,2023-06-24,2023-05-01,239.9193548387097
41228116,Mono tipo LOFT ALTO COMAHUE SHOPPING!!,entire_home,,Neuquén,-38.94341,-68.0641,"['No hay evaluaciones', '2 camas', '1 dormitorio', '1 baño', '1 cama de una plaza', 'Wifi', 'No hay evaluaciones']",2023-07-01,2023-07-06,,$30 USD,noche,298,2023-06-24,2023-05-01,239.9193548387097
31265760,Barrio Arevalo - AMUEBLADO COMAHUE,entire_home,,Cipolletti,-38.93605,-68.01199,"['2 camas', '1 dormitorio', '1 baño', '1 cama doble', '1 sofá cama', 'Estacionamiento gratis', 'Wifi']",2023-07-01,2023-07-06,,$52 USD,noche,298,2023-06-24,2023-05-01,239.9193548387097
39606454,AMUEBLADOS COMAHUE - Temp. Growing - 3pax,entire_home,,Neuquén,-38.94389,-68.05413,"['2 camas', '1 dormitorio', '1 baño', '1 cama doble', '1 sofá cama']",2023-07-01,2023-07-06,,$70 USD,noche,298,2023-06-24,2023-05-01,239.9193548387097
53104799,EXCEPCIONAL ALTO COMAHUE SHOPPING! Dpto 2 dorm!,entire_home,,Neuquén,-38.9416,-68.06371,"['No hay evaluaciones', '4 camas', '2 dormitorios', '1 baño', '1 cama queen', '3 camas de una plaza', 'Wifi', 'No hay evaluaciones']",2023-07-01,2023-07-06,,$36 USD,noche,298,2023-06-24,2023-05-01,239.9193548387097
893537338977668016,"""Doña Cota"" - Amueblados Comahue",entire_home,Nuevo,BGJ,-38.94933,-68.06615,"['3 camas', '2 dormitorios', '1 ,5 baños', 'Estacionamiento gratis', 'Wifi']",2023-07-01,2023-07-06,,$90 USD,noche,298,2023-06-24,2023-05-01,239.9193548387097
48314784,Depto céntrico NQN,entire_home,,Neuquén,-38.95536,-68.05601,"['2 camas', '1 dormitorio', '1 baño', '1 cama doble', '1 sofá cama', 'Wifi']",2023-09-01,2023-09-06,,$58 USD,noche,298,2023-06-24,2023-05-01,239.9193548387097
